{
"type": "FeatureCollection",
"name": "hospital",
"crs": { "type": "name", "properties": { "name": "urn:ogc:def:crs:OGC:1.3:CRS84" } },
"features": [
{ "type": "Feature", "properties": { "Name": "Hadbin Health Center", "Wilayat": "Wilayat Sadah", "Governorat": "Dhofar Governorate", "Latitude": 17.1982505356, "Longitude": 55.219032889600001 }, "geometry": { "type": "Point", "coordinates": [ 55.219032889645192, 17.198250535607219, 16.69062 ] } },
{ "type": "Feature", "properties": { "Name": "Hadbin Health Center", "Wilayat": "Wilayat Sadah", "Governorat": "Dhofar Governorate", "Latitude": 17.198047904300001, "Longitude": 55.218760571700003 }, "geometry": { "type": "Point", "coordinates": [ 55.21876057173148, 17.198047904345071, 21.73607 ] } },
{ "type": "Feature", "properties": { "Name": "Demeet Polyclinic", "Wilayat": "Wilayat Shalim Wa Juzor Al Hallaniyat", "Governorat": "Dhofar Governorate", "Latitude": 17.870753640899999, "Longitude": 54.984499747100003 }, "geometry": { "type": "Point", "coordinates": [ 54.984499747111393, 17.870753640907939, 352.53305 ] } },
{ "type": "Feature", "properties": { "Name": "Hasik Health Center", "Wilayat": "Wilayat Sadah", "Governorat": "Dhofar Governorate", "Latitude": 17.444385426099998, "Longitude": 55.2693803441 }, "geometry": { "type": "Point", "coordinates": [ 55.269380344141453, 17.444385426050772, 12.9629 ] } },
{ "type": "Feature", "properties": { "Name": "AL Shewaymeyah Medical Center", "Wilayat": "Wilayat Shalim Wa Juzor Al Hallaniyat", "Governorat": "Dhofar Governorate", "Latitude": 17.8867810781, "Longitude": 55.616922324699999 }, "geometry": { "type": "Point", "coordinates": [ 55.616922324707254, 17.886781078128667, 14.74418 ] } },
{ "type": "Feature", "properties": { "Name": "Shelim Medical Center", "Wilayat": "Wilayat Shalim Wa Juzor Al Hallaniyat", "Governorat": "Dhofar Governorate", "Latitude": 18.0962322932, "Longitude": 55.639814090800002 }, "geometry": { "type": "Point", "coordinates": [ 55.639814090842123, 18.096232293225061, 277.61094 ] } },
{ "type": "Feature", "properties": { "Name": "Al Laqbi Medical Center (with beds)", "Wilayat": "Wilayat Al Jazir", "Governorat": "Al Wusta Governorate", "Latitude": 18.216564391599999, "Longitude": 56.547097613200002 }, "geometry": { "type": "Point", "coordinates": [ 56.54709761320693, 18.216564391556876, 12.01571 ] } },
{ "type": "Feature", "properties": { "Name": "Ras Madrakah Medical center", "Wilayat": "Wilayat Ad Duqm", "Governorat": "Al Wusta Governorate", "Latitude": 18.978321366799999, "Longitude": 57.781689569900003 }, "geometry": { "type": "Point", "coordinates": [ 57.781689569855672, 18.978321366775489, 12.9753 ] } },
{ "type": "Feature", "properties": { "Name": "Hitam Health Center", "Wilayat": "Wilayat Ad Duqm", "Governorat": "Al Wusta Governorate", "Latitude": 18.834627622399999, "Longitude": 56.920020960199999 }, "geometry": { "type": "Point", "coordinates": [ 56.920020960216867, 18.834627622409741, 15.8921 ] } },
{ "type": "Feature", "properties": { "Name": "Muqshen Health Center", "Wilayat": "Wilayat Muqshin", "Governorat": "Dhofar Governorate", "Latitude": 19.565168425, "Longitude": 54.890141616699999 }, "geometry": { "type": "Point", "coordinates": [ 54.890141616739363, 19.565168425048029, 142.27613 ] } },
{ "type": "Feature", "properties": { "Name": "Rima Health Center", "Wilayat": "Wilayat Al Jazir", "Governorat": "Al Wusta Governorate", "Latitude": 19.0488432388, "Longitude": 56.4586229692 }, "geometry": { "type": "Point", "coordinates": [ 56.458622969181455, 19.048843238801066, 146.1542 ] } },
{ "type": "Feature", "properties": { "Name": null, "Wilayat": "Wilayat Hayma", "Governorat": "Al Wusta Governorate", "Latitude": 19.9509742794, "Longitude": 56.284985625899999 }, "geometry": { "type": "Point", "coordinates": [ 56.284985625913919, 19.950974279411042, 141.67439 ] } },
{ "type": "Feature", "properties": { "Name": "Sirab Medical Center", "Wilayat": "Wilayat Mahawt", "Governorat": "Al Wusta Governorate", "Latitude": 20.201068023099999, "Longitude": 57.808387944099998 }, "geometry": { "type": "Point", "coordinates": [ 57.808387944069672, 20.201068023082343, 25.45941 ] } },
{ "type": "Feature", "properties": { "Name": "Al ajaiz Health center", "Wilayat": "Wilayat Hayma", "Governorat": "Al Wusta Governorate", "Latitude": 19.5527399584, "Longitude": 57.187470996099997 }, "geometry": { "type": "Point", "coordinates": [ 57.187470996143247, 19.552739958439339, 165.41 ] } },
{ "type": "Feature", "properties": { "Name": "High Medical Clinic", "Wilayat": "Wilayat Mahawt", "Governorat": "Al Wusta Governorate", "Latitude": 20.763799572100002, "Longitude": 58.288587176100002 }, "geometry": { "type": "Point", "coordinates": [ 58.288587176149143, 20.763799572140506, 29.57673 ] } },
{ "type": "Feature", "properties": { "Name": "Khaluf Medical Center", "Wilayat": "Wilayat Mahawt", "Governorat": "Al Wusta Governorate", "Latitude": 20.471067289600001, "Longitude": 58.062837007900001 }, "geometry": { "type": "Point", "coordinates": [ 58.062837007934931, 20.471067289609572, 13.17284 ] } },
{ "type": "Feature", "properties": { "Name": "Al Khaluf Health Center (with beds)", "Wilayat": "Wilayat Mahawt", "Governorat": "Al Wusta Governorate", "Latitude": 20.470878476700001, "Longitude": 58.063164254299998 }, "geometry": { "type": "Point", "coordinates": [ 58.063164254293113, 20.470878476711782, 14.13104 ] } },
{ "type": "Feature", "properties": { "Name": "AL Ridha Clinic", "Wilayat": "Wilayat Masirah", "Governorat": "Ash Sharqiyah South Governorate", "Latitude": 20.642805059400001, "Longitude": 58.8670043447 }, "geometry": { "type": "Point", "coordinates": [ 58.867004344675031, 20.642805059429545, 7.99073 ] } },
{ "type": "Feature", "properties": { "Name": "Al Ghaynah Health Center", "Wilayat": "Wilayat Jaalan Bani Bu Hasan", "Governorat": "Ash Sharqiyah South Governorate", "Latitude": 21.482987291600001, "Longitude": 59.250834924300001 }, "geometry": { "type": "Point", "coordinates": [ 59.250834924329617, 21.482987291643411, 19.16173 ] } },
{ "type": "Feature", "properties": { "Name": null, "Wilayat": "Wilayat Jaalan Bani Bu Hasan", "Governorat": "Ash Sharqiyah South Governorate", "Latitude": 21.4837229448, "Longitude": 59.250833653900003 }, "geometry": { "type": "Point", "coordinates": [ 59.250833653907733, 21.48372294477576, 19.37949 ] } },
{ "type": "Feature", "properties": { "Name": "An Najdah Health Center (with Beds)", "Wilayat": "Wilayat Mahawt", "Governorat": "Al Wusta Governorate", "Latitude": 20.8393579936, "Longitude": 58.702866275799998 }, "geometry": { "type": "Point", "coordinates": [ 58.702866275771285, 20.839357993586656, 10.5484 ] } },
{ "type": "Feature", "properties": { "Name": "Bahla Hospital Er", "Wilayat": "Wilayat Bahla", "Governorat": "Ad Dakhliyah Governorate", "Latitude": 22.729781899900001, "Longitude": 57.2500220895 }, "geometry": { "type": "Point", "coordinates": [ 57.25002208948829, 22.729781899877885, 425.66775 ] } },
{ "type": "Feature", "properties": { "Name": "Ouaifia Health Center", "Wilayat": "Wilayat Bahla", "Governorat": "Ad Dakhliyah Governorate", "Latitude": 22.280682360899998, "Longitude": 56.961786470900002 }, "geometry": { "type": "Point", "coordinates": [ 56.961786470938513, 22.280682360902954, 215.15714 ] } },
{ "type": "Feature", "properties": { "Name": "AL MUDHAIBI MEDICAL CENTER", "Wilayat": "Wilayat Al Mudaybi", "Governorat": "Ash Sharqiyah North Governorate", "Latitude": 22.571289781299999, "Longitude": 58.120400514000004 }, "geometry": { "type": "Point", "coordinates": [ 58.120400513962373, 22.571289781270099, 403.84031 ] } },
{ "type": "Feature", "properties": { "Name": "Al Jaza Health Center", "Wilayat": "Wilayat Al Mudaybi", "Governorat": "Ash Sharqiyah North Governorate", "Latitude": 21.914619927699999, "Longitude": 57.978534636 }, "geometry": { "type": "Point", "coordinates": [ 57.978534636001804, 21.914619927681837, 185.6458 ] } },
{ "type": "Feature", "properties": { "Name": "C D C unit  Al Mudaybi", "Wilayat": "Wilayat Al Mudaybi", "Governorat": "Ash Sharqiyah North Governorate", "Latitude": 22.576101936600001, "Longitude": 58.119508777500002 }, "geometry": { "type": "Point", "coordinates": [ 58.11950877753435, 22.576101936617743, 416.91426 ] } },
{ "type": "Feature", "properties": { "Name": "Wadi Dama Health Center", "Wilayat": "Wilayat Al Mudaybi", "Governorat": "Ash Sharqiyah North Governorate", "Latitude": 22.581493901000002, "Longitude": 58.304691708599997 }, "geometry": { "type": "Point", "coordinates": [ 58.30469170861079, 22.581493901040794, 553.82406 ] } },
{ "type": "Feature", "properties": { "Name": "Al Thaher Health Center", "Wilayat": "Wilayat Bidiyah", "Governorat": "Ash Sharqiyah North Governorate", "Latitude": 22.600479646, "Longitude": 58.822368006600001 }, "geometry": { "type": "Point", "coordinates": [ 58.822368006550562, 22.600479645960096, 404.6766 ] } },
{ "type": "Feature", "properties": { "Name": "Al Aflaj Medical Center", "Wilayat": "Wilayat Al Mudaybi", "Governorat": "Ash Sharqiyah North Governorate", "Latitude": 22.384704259300001, "Longitude": 58.211345583700002 }, "geometry": { "type": "Point", "coordinates": [ 58.211345583733376, 22.384704259324931, 320.96967 ] } },
{ "type": "Feature", "properties": { "Name": "Malaria Erad. Unit  Ibra", "Wilayat": "Wilayat Ibra", "Governorat": "Ash Sharqiyah North Governorate", "Latitude": 22.7412716682, "Longitude": 58.515906395199998 }, "geometry": { "type": "Point", "coordinates": [ 58.515906395200766, 22.74127166816978, 467.24376 ] } },
{ "type": "Feature", "properties": { "Name": "Al Qabil Health Center", "Wilayat": "Wilayat Al Qabil", "Governorat": "Ash Sharqiyah North Governorate", "Latitude": 22.581907298000001, "Longitude": 58.689900990700004 }, "geometry": { "type": "Point", "coordinates": [ 58.689900990663347, 22.581907298000893, 350.20004 ] } },
{ "type": "Feature", "properties": { "Name": "Al Qabil Wohs", "Wilayat": "Wilayat Al Qabil", "Governorat": "Ash Sharqiyah North Governorate", "Latitude": 22.581640750599998, "Longitude": 58.690009025199998 }, "geometry": { "type": "Point", "coordinates": [ 58.690009025225514, 22.581640750618263, 348.45616 ] } },
{ "type": "Feature", "properties": { "Name": "Wadi Nam Medical Center", "Wilayat": "Wilayat Al Qabil", "Governorat": "Ash Sharqiyah North Governorate", "Latitude": 22.7278910745, "Longitude": 58.639701461599998 }, "geometry": { "type": "Point", "coordinates": [ 58.639701461580472, 22.727891074529865, 413.1418 ] } },
{ "type": "Feature", "properties": { "Name": null, "Wilayat": "Wilayat Ibra", "Governorat": "Ash Sharqiyah North Governorate", "Latitude": 22.691772712100001, "Longitude": 58.545827815700001 }, "geometry": { "type": "Point", "coordinates": [ 58.545827815706261, 22.691772712098437, 437.86565 ] } },
{ "type": "Feature", "properties": { "Name": "Ibn Al Haitham Medical Center", "Wilayat": "Wilayat Ibra", "Governorat": "Ash Sharqiyah North Governorate", "Latitude": 22.717208983300001, "Longitude": 58.527896148700002 }, "geometry": { "type": "Point", "coordinates": [ 58.527896148680611, 22.717208983292601, 458.29399 ] } },
{ "type": "Feature", "properties": { "Name": "Jalan Bani Bu Hasan Hospital ER", "Wilayat": "Wilayat Jaalan Bani Bu Hasan", "Governorat": "Ash Sharqiyah South Governorate", "Latitude": 22.1139854551, "Longitude": 59.270008674099998 }, "geometry": { "type": "Point", "coordinates": [ 59.270008674148357, 22.1139854550701, 132.90214 ] } },
{ "type": "Feature", "properties": { "Name": null, "Wilayat": "Wilayat Jaalan Bani Bu Ali", "Governorat": "Ash Sharqiyah South Governorate", "Latitude": 22.0558562973, "Longitude": 59.315172479300003 }, "geometry": { "type": "Point", "coordinates": [ 59.315172479273031, 22.055856297273529, 119.06829 ] } },
{ "type": "Feature", "properties": { "Name": "Falj Al Mashayekh Medical Center", "Wilayat": "Wilayat Jaalan Bani Bu Hasan", "Governorat": "Ash Sharqiyah South Governorate", "Latitude": 22.1377307753, "Longitude": 59.169352081600003 }, "geometry": { "type": "Point", "coordinates": [ 59.169352081637371, 22.137730775327913, 151.6894 ] } },
{ "type": "Feature", "properties": { "Name": "Al Mamurah Clinic", "Wilayat": "Wilayat Al Kamil Wa Al Wafi", "Governorat": "Ash Sharqiyah South Governorate", "Latitude": 22.216477291299999, "Longitude": 59.199429098400003 }, "geometry": { "type": "Point", "coordinates": [ 59.199429098400152, 22.216477291348273, 171.32402 ] } },
{ "type": "Feature", "properties": { "Name": "Masirah Medical Complex", "Wilayat": "Wilayat Sur", "Governorat": "Ash Sharqiyah South Governorate", "Latitude": 22.577525639099999, "Longitude": 59.515012179499998 }, "geometry": { "type": "Point", "coordinates": [ 59.515012179453109, 22.57752563910601, 33.39481 ] } },
{ "type": "Feature", "properties": { "Name": "Sur Wohs", "Wilayat": "Wilayat Sur", "Governorat": "Ash Sharqiyah South Governorate", "Latitude": 22.578028806500001, "Longitude": 59.521833836200003 }, "geometry": { "type": "Point", "coordinates": [ 59.5218338361679, 22.578028806503742, 11.6477 ] } },
{ "type": "Feature", "properties": { "Name": "City Medical Centre", "Wilayat": "Wilayat Sur", "Governorat": "Ash Sharqiyah South Governorate", "Latitude": 22.559840405799999, "Longitude": 59.492593446500003 }, "geometry": { "type": "Point", "coordinates": [ 59.492593446500123, 22.559840405809219, 16.08905 ] } },
{ "type": "Feature", "properties": { "Name": "Veterinary Clinic", "Wilayat": "Wilayat Sur", "Governorat": "Ash Sharqiyah South Governorate", "Latitude": 22.539275650800001, "Longitude": 59.482634084099999 }, "geometry": { "type": "Point", "coordinates": [ 59.482634084112476, 22.539275650848502, 17.6494 ] } },
{ "type": "Feature", "properties": { "Name": "Wadi Bani Jabir Health Center", "Wilayat": "Wilayat Sur", "Governorat": "Ash Sharqiyah South Governorate", "Latitude": 22.573078907300001, "Longitude": 59.313288855499998 }, "geometry": { "type": "Point", "coordinates": [ 59.313288855517783, 22.57307890734927, 530.83116 ] } },
{ "type": "Feature", "properties": { "Name": "W. B. KHALID WOHS", "Wilayat": "Wilayat Wadi Bani Khalid", "Governorat": "Ash Sharqiyah North Governorate", "Latitude": 22.5796190471, "Longitude": 59.094918460599999 }, "geometry": { "type": "Point", "coordinates": [ 59.094918460554666, 22.579619047055694, 600.82905 ] } },
{ "type": "Feature", "properties": { "Name": "Tahwah Health Center", "Wilayat": "Wilayat Al Kamil Wa Al Wafi", "Governorat": "Ash Sharqiyah South Governorate", "Latitude": 22.386419211500002, "Longitude": 59.266543974800001 }, "geometry": { "type": "Point", "coordinates": [ 59.266543974803504, 22.386419211464926, 202.94239 ] } },
{ "type": "Feature", "properties": { "Name": "Thwah Medical Centre", "Wilayat": "Wilayat Al Kamil Wa Al Wafi", "Governorat": "Ash Sharqiyah South Governorate", "Latitude": 22.372388027, "Longitude": 59.317391768100002 }, "geometry": { "type": "Point", "coordinates": [ 59.317391768092314, 22.37238802702818, 168.71622 ] } },
{ "type": "Feature", "properties": { "Name": "Al Ruwais Medical Centre", "Wilayat": "Wilayat Jaalan Bani Bu Ali", "Governorat": "Ash Sharqiyah South Governorate", "Latitude": 22.1825291205, "Longitude": 59.768294841 }, "geometry": { "type": "Point", "coordinates": [ 59.768294841002387, 22.182529120468516, 16.17166 ] } },
{ "type": "Feature", "properties": { "Name": "Al Ayjah Medical Centre", "Wilayat": "Wilayat Sur", "Governorat": "Ash Sharqiyah South Governorate", "Latitude": 22.562953024900001, "Longitude": 59.545363749499998 }, "geometry": { "type": "Point", "coordinates": [ 59.545363749489169, 22.56295302485228, 8.56363 ] } },
{ "type": "Feature", "properties": { "Name": "Wadi Al Minqal Health Center", "Wilayat": "Wilayat Sur", "Governorat": "Ash Sharqiyah South Governorate", "Latitude": 22.549293026299999, "Longitude": 59.356225575099998 }, "geometry": { "type": "Point", "coordinates": [ 59.356225575117918, 22.54929302631686, 171.281 ] } },
{ "type": "Feature", "properties": { "Name": null, "Wilayat": "Wilayat Jaalan Bani Bu Ali", "Governorat": "Ash Sharqiyah South Governorate", "Latitude": 21.955918327100001, "Longitude": 59.629727452799997 }, "geometry": { "type": "Point", "coordinates": [ 59.629727452760299, 21.955918327078738, 11.067 ] } },
{ "type": "Feature", "properties": { "Name": "Bilad Alshuhom MedicAl Centre", "Wilayat": "Wilayat Ibri", "Governorat": "Adh Dhahirah Governorate", "Latitude": 23.3957231469, "Longitude": 56.994786879099998 }, "geometry": { "type": "Point", "coordinates": [ 56.994786879074354, 23.395723146887693, 925.42143 ] } },
{ "type": "Feature", "properties": { "Name": "Tanuf Medical Centre", "Wilayat": "Wilayat Nizwa", "Governorat": "Ad Dakhliyah Governorate", "Latitude": 23.0363564146, "Longitude": 57.467728038099999 }, "geometry": { "type": "Point", "coordinates": [ 57.467728038120335, 23.036356414645706, 611.93097 ] } },
{ "type": "Feature", "properties": { "Name": "Jabal Al Kaur Health Center", "Wilayat": "Wilayat Bahla", "Governorat": "Ad Dakhliyah Governorate", "Latitude": 23.1343115094, "Longitude": 57.089579922 }, "geometry": { "type": "Point", "coordinates": [ 57.089579921971698, 23.134311509363169, 947.62801 ] } },
{ "type": "Feature", "properties": { "Name": "Oman Polyclinic", "Wilayat": "Wilayat Ibri", "Governorat": "Adh Dhahirah Governorate", "Latitude": 23.220368263600001, "Longitude": 56.515496288800001 }, "geometry": { "type": "Point", "coordinates": [ 56.515496288821474, 23.220368263637106, 370.40891 ] } },
{ "type": "Feature", "properties": { "Name": "Al Seleaf Medical Center", "Wilayat": "Wilayat Ibri", "Governorat": "Adh Dhahirah Governorate", "Latitude": 23.217117123000001, "Longitude": 56.516081819599997 }, "geometry": { "type": "Point", "coordinates": [ 56.516081819550301, 23.217117122989414, 369.4398 ] } },
{ "type": "Feature", "properties": { "Name": "Al Shaqsi Medical Center", "Wilayat": "Wilayat Bahla", "Governorat": "Ad Dakhliyah Governorate", "Latitude": 22.9795106991, "Longitude": 57.308667307599997 }, "geometry": { "type": "Point", "coordinates": [ 57.308667307564576, 22.979510699058295, 595.909 ] } },
{ "type": "Feature", "properties": { "Name": "Al Ghafat Medical Center", "Wilayat": "Wilayat Bahla", "Governorat": "Ad Dakhliyah Governorate", "Latitude": 22.9717285099, "Longitude": 57.159111233600001 }, "geometry": { "type": "Point", "coordinates": [ 57.15911123362649, 22.971728509918549, 567.72628 ] } },
{ "type": "Feature", "properties": { "Name": "Clinic Abu Badr Al-Hosni", "Wilayat": "Wilayat Saham", "Governorat": "Al Batinah North Governorate", "Latitude": 24.0425345172, "Longitude": 57.003880855399998 }, "geometry": { "type": "Point", "coordinates": [ 57.003880855433707, 24.042534517233562, 19.30111 ] } },
{ "type": "Feature", "properties": { "Name": "General Medical Clinic", "Wilayat": "Wilayat Saham", "Governorat": "Al Batinah North Governorate", "Latitude": 24.062101955599999, "Longitude": 57.000951941700002 }, "geometry": { "type": "Point", "coordinates": [ 57.000951941662791, 24.062101955620662, 12.89223 ] } },
{ "type": "Feature", "properties": { "Name": "Al Mezan Polyclinic", "Wilayat": "Wilayat As Suwayq", "Governorat": "Al Batinah North Governorate", "Latitude": 23.853588137799999, "Longitude": 57.335786016599997 }, "geometry": { "type": "Point", "coordinates": [ 57.335786016629939, 23.853588137841299, 12.10249 ] } },
{ "type": "Feature", "properties": { "Name": "Al Qraiq Clinic", "Wilayat": "Wilayat As Suwayq", "Governorat": "Al Batinah North Governorate", "Latitude": 23.855997633600001, "Longitude": 57.333994022900001 }, "geometry": { "type": "Point", "coordinates": [ 57.333994022858938, 23.85599763355274, 14.24527 ] } },
{ "type": "Feature", "properties": { "Name": "Specialty Sultan Clinic", "Wilayat": "Wilayat As Suwayq", "Governorat": "Al Batinah North Governorate", "Latitude": 23.8667260848, "Longitude": 57.310485793600002 }, "geometry": { "type": "Point", "coordinates": [ 57.310485793620735, 23.866726084826048, 12.97636 ] } },
{ "type": "Feature", "properties": { "Name": "Shema Dentel Clinic", "Wilayat": "Wilayat As Suwayq", "Governorat": "Al Batinah North Governorate", "Latitude": 23.847483346499999, "Longitude": 57.4382963065 }, "geometry": { "type": "Point", "coordinates": [ 57.438296306473305, 23.847483346508231, 12.56828 ] } },
{ "type": "Feature", "properties": { "Name": "Lamsath Al Shifa Clinic", "Wilayat": "Wilayat As Suwayq", "Governorat": "Al Batinah North Governorate", "Latitude": 23.849605720300001, "Longitude": 57.439443036 }, "geometry": { "type": "Point", "coordinates": [ 57.439443035991943, 23.849605720336992, 17.81423 ] } },
{ "type": "Feature", "properties": { "Name": "Al Shifa Clinic", "Wilayat": "Wilayat Al Khaburah", "Governorat": "Al Batinah North Governorate", "Latitude": 23.9810902581, "Longitude": 57.102574985899999 }, "geometry": { "type": "Point", "coordinates": [ 57.102574985927653, 23.981090258072626, 5.9495 ] } },
{ "type": "Feature", "properties": { "Name": "Al Madain Dentel Clinic", "Wilayat": "Wilayat Al Khaburah", "Governorat": "Al Batinah North Governorate", "Latitude": 23.972548208100001, "Longitude": 57.090657649800001 }, "geometry": { "type": "Point", "coordinates": [ 57.090657649782692, 23.972548208062129, 23.66756 ] } },
{ "type": "Feature", "properties": { "Name": "Al Mushaiq Health Centre", "Wilayat": "Wilayat As Suwayq", "Governorat": "Al Batinah North Governorate", "Latitude": 23.792514493599999, "Longitude": 57.1571640266 }, "geometry": { "type": "Point", "coordinates": [ 57.157164026573163, 23.792514493620882, 99.95076 ] } },
{ "type": "Feature", "properties": { "Name": "Al Rafideen Dentistry Clinic", "Wilayat": "Wilayat As Suwayq", "Governorat": "Al Batinah North Governorate", "Latitude": 23.924174539, "Longitude": 57.158903837099999 }, "geometry": { "type": "Point", "coordinates": [ 57.158903837148095, 23.924174538962859, 15.44949 ] } },
{ "type": "Feature", "properties": { "Name": "General Clinic", "Wilayat": "Wilayat Al Khaburah", "Governorat": "Al Batinah North Governorate", "Latitude": 23.934370514000001, "Longitude": 57.139422074300001 }, "geometry": { "type": "Point", "coordinates": [ 57.139422074346214, 23.934370514043682, 17.10735 ] } },
{ "type": "Feature", "properties": { "Name": "Dentistry Clinic", "Wilayat": "Wilayat As Suwayq", "Governorat": "Al Batinah North Governorate", "Latitude": 23.921779821600001, "Longitude": 57.1658600345 }, "geometry": { "type": "Point", "coordinates": [ 57.165860034540245, 23.921779821606567, 19.037 ] } },
{ "type": "Feature", "properties": { "Name": "BIN MEDAD CLINIC", "Wilayat": "Wilayat As Suwayq", "Governorat": "Al Batinah North Governorate", "Latitude": 23.8935977276, "Longitude": 57.248734970100003 }, "geometry": { "type": "Point", "coordinates": [ 57.248734970101147, 23.893597727610516, 22.99356 ] } },
{ "type": "Feature", "properties": { "Name": "General Clinic", "Wilayat": "Wilayat As Suwayq", "Governorat": "Al Batinah North Governorate", "Latitude": 23.9023436614, "Longitude": 57.215165237900003 }, "geometry": { "type": "Point", "coordinates": [ 57.2151652379086, 23.902343661350478, 22.80747 ] } },
{ "type": "Feature", "properties": { "Name": "Murtafat Al-Breik Clinic", "Wilayat": "Wilayat Al Khaburah", "Governorat": "Al Batinah North Governorate", "Latitude": 23.9735180767, "Longitude": 57.094481827099997 }, "geometry": { "type": "Point", "coordinates": [ 57.094481827097603, 23.973518076685004, 14.86272 ] } },
{ "type": "Feature", "properties": { "Name": "General Clinic", "Wilayat": "Wilayat As Suwayq", "Governorat": "Al Batinah North Governorate", "Latitude": 23.921000448499999, "Longitude": 57.167446093599999 }, "geometry": { "type": "Point", "coordinates": [ 57.167446093566106, 23.921000448485682, 13.85451 ] } },
{ "type": "Feature", "properties": { "Name": "Al Kiyumi Medical Complex", "Wilayat": "Wilayat As Suwayq", "Governorat": "Al Batinah North Governorate", "Latitude": 23.919512032499998, "Longitude": 57.171195075500002 }, "geometry": { "type": "Point", "coordinates": [ 57.171195075490957, 23.919512032470315, 22.9394 ] } },
{ "type": "Feature", "properties": { "Name": "WADI AAHEN MEDICAL CENTER", "Wilayat": "Wilayat Sohar", "Governorat": "Al Batinah North Governorate", "Latitude": 23.982242858700001, "Longitude": 56.509571172999998 }, "geometry": { "type": "Point", "coordinates": [ 56.509571173010286, 23.982242858726742, 450.01789 ] } },
{ "type": "Feature", "properties": { "Name": null, "Wilayat": "Wilayat Al Khaburah", "Governorat": "Al Batinah North Governorate", "Latitude": 23.771252108900001, "Longitude": 56.666014738599998 }, "geometry": { "type": "Point", "coordinates": [ 56.666014738559603, 23.771252108918052, 615.59365 ] } },
{ "type": "Feature", "properties": { "Name": "Al Huwqain Health Center", "Wilayat": "Wilayat Ar Rustaq", "Governorat": "Al Batinah South Governorate", "Latitude": 23.542278379500001, "Longitude": 57.329592597900003 }, "geometry": { "type": "Point", "coordinates": [ 57.329592597918285, 23.542278379465529, 254.48282 ] } },
{ "type": "Feature", "properties": { "Name": "Wadi Algahawer Medical Center", "Wilayat": "Wilayat As Suwayq", "Governorat": "Al Batinah North Governorate", "Latitude": 23.647068263000001, "Longitude": 57.133058007000002 }, "geometry": { "type": "Point", "coordinates": [ 57.133058007003896, 23.647068263048883, 294.52017 ] } },
{ "type": "Feature", "properties": { "Name": "Yanqul Local Hospital", "Wilayat": "Wilayat Yanqul", "Governorat": "Adh Dhahirah Governorate", "Latitude": 23.590896283900001, "Longitude": 56.545996420599998 }, "geometry": { "type": "Point", "coordinates": [ 56.545996420607068, 23.590896283853478, 559.09214 ] } },
{ "type": "Feature", "properties": { "Name": null, "Wilayat": "Wilayat Yanqul", "Governorat": "Adh Dhahirah Governorate", "Latitude": 23.5912345202, "Longitude": 56.549185677899999 }, "geometry": { "type": "Point", "coordinates": [ 56.549185677911964, 23.591234520215252, 561.1754 ] } },
{ "type": "Feature", "properties": { "Name": "Wabil Clinic", "Wilayat": "Wilayat Ar Rustaq", "Governorat": "Al Batinah South Governorate", "Latitude": 23.407293090700001, "Longitude": 57.4192087841 }, "geometry": { "type": "Point", "coordinates": [ 57.419208784127655, 23.407293090722337, 339.74618 ] } },
{ "type": "Feature", "properties": { "Name": "Rustaq Wohs", "Wilayat": "Wilayat Ar Rustaq", "Governorat": "Al Batinah South Governorate", "Latitude": 23.480880131100001, "Longitude": 57.454835497700003 }, "geometry": { "type": "Point", "coordinates": [ 57.454835497698561, 23.480880131121843, 269.91038 ] } },
{ "type": "Feature", "properties": { "Name": "Malaria Erad. unit - Rustaq", "Wilayat": "Wilayat Ar Rustaq", "Governorat": "Al Batinah South Governorate", "Latitude": 23.482370001, "Longitude": 57.455936285 }, "geometry": { "type": "Point", "coordinates": [ 57.455936284998089, 23.482370001035434, 268.90122 ] } },
{ "type": "Feature", "properties": { "Name": "Al Murshad Polyclinic", "Wilayat": "Wilayat Ar Rustaq", "Governorat": "Al Batinah South Governorate", "Latitude": 23.48583027, "Longitude": 57.455088293400003 }, "geometry": { "type": "Point", "coordinates": [ 57.455088293415031, 23.485830270013317, 260.80039 ] } },
{ "type": "Feature", "properties": { "Name": "Al Atef Clinic", "Wilayat": "Wilayat Ar Rustaq", "Governorat": "Al Batinah South Governorate", "Latitude": 23.3921017041, "Longitude": 57.4249614529 }, "geometry": { "type": "Point", "coordinates": [ 57.424961452913024, 23.392101704138984, 347.74132 ] } },
{ "type": "Feature", "properties": { "Name": "Al Maslahi Polyclinic", "Wilayat": "Wilayat Ar Rustaq", "Governorat": "Al Batinah South Governorate", "Latitude": 23.3918555377, "Longitude": 57.424128561300002 }, "geometry": { "type": "Point", "coordinates": [ 57.424128561269598, 23.391855537677863, 343.91868 ] } },
{ "type": "Feature", "properties": { "Name": "Alrazi Medical Center", "Wilayat": "Wilayat Ar Rustaq", "Governorat": "Al Batinah South Governorate", "Latitude": 23.4452572655, "Longitude": 57.112860285399996 }, "geometry": { "type": "Point", "coordinates": [ 57.112860285350223, 23.445257265543532, 675.40025 ] } },
{ "type": "Feature", "properties": { "Name": null, "Wilayat": "Wilayat Yanqul", "Governorat": "Adh Dhahirah Governorate", "Latitude": 23.5899234902, "Longitude": 56.546097263900002 }, "geometry": { "type": "Point", "coordinates": [ 56.546097263938258, 23.589923490211063, 557.355 ] } },
{ "type": "Feature", "properties": { "Name": "Kahnat Hospital", "Wilayat": "Wilayat Saham", "Governorat": "Al Batinah North Governorate", "Latitude": 23.788991210900001, "Longitude": 56.866449564100002 }, "geometry": { "type": "Point", "coordinates": [ 56.866449564142535, 23.788991210871004, 313.36 ] } },
{ "type": "Feature", "properties": { "Name": "Al Hamra Health Centre", "Wilayat": "Wilayat Al Hamra", "Governorat": "Ad Dakhliyah Governorate", "Latitude": 23.0992646704, "Longitude": 57.276331316799997 }, "geometry": { "type": "Point", "coordinates": [ 57.27633131679643, 23.099264670408399, 657.339 ] } },
{ "type": "Feature", "properties": { "Name": "Wadi Alain Alhajir Medical Centre", "Wilayat": "Wilayat Ibri", "Governorat": "Adh Dhahirah Governorate", "Latitude": 23.2102722998, "Longitude": 56.949467958 }, "geometry": { "type": "Point", "coordinates": [ 56.949467958014701, 23.210272299831928, 633.661 ] } },
{ "type": "Feature", "properties": { "Name": "Sumail Wohs", "Wilayat": "Wilayat Samail", "Governorat": "Ad Dakhliyah Governorate", "Latitude": 23.292408136399999, "Longitude": 57.959514583999997 }, "geometry": { "type": "Point", "coordinates": [ 57.959514583959006, 23.292408136383134, 396.11852 ] } },
{ "type": "Feature", "properties": { "Name": "Mis Health Centre", "Wilayat": "Wilayat Samail", "Governorat": "Ad Dakhliyah Governorate", "Latitude": 23.073180451199999, "Longitude": 58.221148200899997 }, "geometry": { "type": "Point", "coordinates": [ 58.221148200869749, 23.073180451223276, 697.95048 ] } },
{ "type": "Feature", "properties": { "Name": "Wadi Bani Rawahah Health Centre", "Wilayat": "Wilayat Samail", "Governorat": "Ad Dakhliyah Governorate", "Latitude": 23.142080244599999, "Longitude": 57.845747388600003 }, "geometry": { "type": "Point", "coordinates": [ 57.845747388632326, 23.142080244611851, 583.20371 ] } },
{ "type": "Feature", "properties": { "Name": "Ministry of Health", "Wilayat": "Wilayat Qurayyat", "Governorat": "Muscat Governorate", "Latitude": 22.992673688899998, "Longitude": 59.135444430100002 }, "geometry": { "type": "Point", "coordinates": [ 59.135444430075069, 22.992673688934111, 15.08221 ] } },
{ "type": "Feature", "properties": { "Name": "Wadi Dema Health Center", "Wilayat": "Wilayat Dama Wa At Taiyin", "Governorat": "Ash Sharqiyah North Governorate", "Latitude": 22.984591443799999, "Longitude": 58.502957760699999 }, "geometry": { "type": "Point", "coordinates": [ 58.502957760738589, 22.984591443828212, 580.32302 ] } },
{ "type": "Feature", "properties": { "Name": "Sema & Muqazah Medical Center", "Wilayat": "Wilayat Izki", "Governorat": "Ad Dakhliyah Governorate", "Latitude": 22.975786388300001, "Longitude": 57.905431549900001 }, "geometry": { "type": "Point", "coordinates": [ 57.905431549917836, 22.975786388284, 668.38039 ] } },
{ "type": "Feature", "properties": { "Name": "Al Insaniyah Clinic", "Wilayat": "Wilayat Izki", "Governorat": "Ad Dakhliyah Governorate", "Latitude": 22.9445038201, "Longitude": 57.758838670499998 }, "geometry": { "type": "Point", "coordinates": [ 57.758838670543625, 22.944503820105069, 563.08739 ] } },
{ "type": "Feature", "properties": { "Name": "Ayaam Dental Clinic", "Wilayat": "Wilayat Nizwa", "Governorat": "Ad Dakhliyah Governorate", "Latitude": 22.890210735299998, "Longitude": 57.5272086007 }, "geometry": { "type": "Point", "coordinates": [ 57.527208600692049, 22.890210735252211, 491.3869 ] } },
{ "type": "Feature", "properties": { "Name": "Abdulrahman Al Khurosi Clinic", "Wilayat": "Wilayat Nizwa", "Governorat": "Ad Dakhliyah Governorate", "Latitude": 22.8899851617, "Longitude": 57.527026538999998 }, "geometry": { "type": "Point", "coordinates": [ 57.527026538964463, 22.88998516170944, 489.91881 ] } },
{ "type": "Feature", "properties": { "Name": "Qarn AL Rawdah Clinic", "Wilayat": "Wilayat Nizwa", "Governorat": "Ad Dakhliyah Governorate", "Latitude": 22.970228902199999, "Longitude": 57.5438666553 }, "geometry": { "type": "Point", "coordinates": [ 57.543866655305379, 22.970228902160567, 552.85708 ] } },
{ "type": "Feature", "properties": { "Name": null, "Wilayat": "Wilayat Nizwa", "Governorat": "Ad Dakhliyah Governorate", "Latitude": 22.951977386399999, "Longitude": 57.522314461800001 }, "geometry": { "type": "Point", "coordinates": [ 57.52231446176139, 22.951977386387696, 542.56066 ] } },
{ "type": "Feature", "properties": { "Name": "Nizwa Medical Complex", "Wilayat": "Wilayat Nizwa", "Governorat": "Ad Dakhliyah Governorate", "Latitude": 22.941188024300001, "Longitude": 57.526915290399998 }, "geometry": { "type": "Point", "coordinates": [ 57.526915290425912, 22.941188024261454, 533.8703 ] } },
{ "type": "Feature", "properties": { "Name": "Al Yazin Medical centre", "Wilayat": "Wilayat As Suwayq", "Governorat": "Al Batinah North Governorate", "Latitude": 23.786161820499998, "Longitude": 57.519031915699998 }, "geometry": { "type": "Point", "coordinates": [ 57.519031915662453, 23.786161820468912, 20.85695 ] } },
{ "type": "Feature", "properties": { "Name": "Muscat Chinese Herbals Clinic", "Wilayat": "Wilayat Al Musanaah", "Governorat": "Al Batinah South Governorate", "Latitude": 23.755875320400001, "Longitude": 57.580198025199998 }, "geometry": { "type": "Point", "coordinates": [ 57.580198025183158, 23.755875320382156, 20.74509 ] } },
{ "type": "Feature", "properties": { "Name": "Al Musannah Health Centre", "Wilayat": "Wilayat Al Musanaah", "Governorat": "Al Batinah South Governorate", "Latitude": 23.7573786697, "Longitude": 57.578136288899998 }, "geometry": { "type": "Point", "coordinates": [ 57.578136288941018, 23.757378669673631, 17.25849 ] } },
{ "type": "Feature", "properties": { "Name": "<Null>", "Wilayat": "Wilayat Al Musanaah", "Governorat": "Al Batinah South Governorate", "Latitude": 23.758275391000002, "Longitude": 57.647638593800004 }, "geometry": { "type": "Point", "coordinates": [ 57.647638593829889, 23.758275390981645, 22.71613 ] } },
{ "type": "Feature", "properties": { "Name": "Al Musannah Health Centre", "Wilayat": "Wilayat Al Musanaah", "Governorat": "Al Batinah South Governorate", "Latitude": 23.7575486934, "Longitude": 57.577916827099997 }, "geometry": { "type": "Point", "coordinates": [ 57.577916827142452, 23.757548693407234, 17.25849 ] } },
{ "type": "Feature", "properties": { "Name": "Al Musannah Health Centre", "Wilayat": "Wilayat Al Musanaah", "Governorat": "Al Batinah South Governorate", "Latitude": 23.757194500899999, "Longitude": 57.577964539200003 }, "geometry": { "type": "Point", "coordinates": [ 57.577964539163531, 23.757194500944426, 17.25849 ] } },
{ "type": "Feature", "properties": { "Name": "Abu Mashal Medical", "Wilayat": "Wilayat Mutrah", "Governorat": "Muscat Governorate", "Latitude": 23.581517536500002, "Longitude": 58.545448414699997 }, "geometry": { "type": "Point", "coordinates": [ 58.545448414697802, 23.581517536540296, 41.20629 ] } },
{ "type": "Feature", "properties": { "Name": "Bombay Medical Center", "Wilayat": "Wilayat Mutrah", "Governorat": "Muscat Governorate", "Latitude": 23.593616746799999, "Longitude": 58.546199604500003 }, "geometry": { "type": "Point", "coordinates": [ 58.546199604508402, 23.593616746757029, 40.06404 ] } },
{ "type": "Feature", "properties": { "Name": "Obar Clinic & Laboratory", "Wilayat": "Wilayat Mutrah", "Governorat": "Muscat Governorate", "Latitude": 23.590311568600001, "Longitude": 58.544457813699999 }, "geometry": { "type": "Point", "coordinates": [ 58.544457813677866, 23.590311568586461, 51.384 ] } },
{ "type": "Feature", "properties": { "Name": "Yiti Health Centre", "Wilayat": "Wilayat Muscat", "Governorat": "Muscat Governorate", "Latitude": 23.506163949000001, "Longitude": 58.661853837300001 }, "geometry": { "type": "Point", "coordinates": [ 58.661853837255883, 23.506163948956338, 17.39116 ] } },
{ "type": "Feature", "properties": { "Name": "Yiti Health Centre", "Wilayat": "Wilayat Muscat", "Governorat": "Muscat Governorate", "Latitude": 23.5059377583, "Longitude": 58.662913145300003 }, "geometry": { "type": "Point", "coordinates": [ 58.662913145285415, 23.505937758310349, 16.63276 ] } },
{ "type": "Feature", "properties": { "Name": "Al Azhar Specialized Medical Centre", "Wilayat": "Wilayat Mutrah", "Governorat": "Muscat Governorate", "Latitude": 23.601898033800001, "Longitude": 58.541629283299997 }, "geometry": { "type": "Point", "coordinates": [ 58.541629283273771, 23.601898033765433, 41.94205 ] } },
{ "type": "Feature", "properties": { "Name": "Dental Clinic", "Wilayat": "Wilayat Mutrah", "Governorat": "Muscat Governorate", "Latitude": 23.595655929, "Longitude": 58.544685702599999 }, "geometry": { "type": "Point", "coordinates": [ 58.544685702611041, 23.595655928999275, 45.25789 ] } },
{ "type": "Feature", "properties": { "Name": "Star Medical Centre", "Wilayat": "Wilayat Mutrah", "Governorat": "Muscat Governorate", "Latitude": 23.5956943023, "Longitude": 58.5457132648 }, "geometry": { "type": "Point", "coordinates": [ 58.545713264827391, 23.59569430230184, 38.07075 ] } },
{ "type": "Feature", "properties": { "Name": "Muscat Medical Clinic", "Wilayat": "Wilayat Mutrah", "Governorat": "Muscat Governorate", "Latitude": 23.615152185500001, "Longitude": 58.561699790399999 }, "geometry": { "type": "Point", "coordinates": [ 58.561699790365466, 23.615152185501486, 20.1677 ] } },
{ "type": "Feature", "properties": { "Name": "Marwars Al Baloushi Trade. Homeopathic Clinic", "Wilayat": "Wilayat Mutrah", "Governorat": "Muscat Governorate", "Latitude": 23.5971217343, "Longitude": 58.546006366299999 }, "geometry": { "type": "Point", "coordinates": [ 58.546006366305107, 23.597121734303773, 36.74498 ] } },
{ "type": "Feature", "properties": { "Name": null, "Wilayat": "Wilayat Muscat", "Governorat": "Muscat Governorate", "Latitude": 23.604962021, "Longitude": 58.597698805500002 }, "geometry": { "type": "Point", "coordinates": [ 58.59769880545317, 23.60496202102987, 15.15724 ] } },
{ "type": "Feature", "properties": { "Name": "Saja Medical Centre, Homeopathic Clinic", "Wilayat": "Wilayat Mutrah", "Governorat": "Muscat Governorate", "Latitude": 23.592105519499999, "Longitude": 58.5445433601 }, "geometry": { "type": "Point", "coordinates": [ 58.544543360101365, 23.592105519487227, 45.2 ] } },
{ "type": "Feature", "properties": { "Name": "RUWI HEALTH CENTRE", "Wilayat": "Wilayat Mutrah", "Governorat": "Muscat Governorate", "Latitude": 23.588534325400001, "Longitude": 58.548096312699997 }, "geometry": { "type": "Point", "coordinates": [ 58.548096312701652, 23.588534325430448, 60.9497 ] } },
{ "type": "Feature", "properties": { "Name": "Adnan Clinic", "Wilayat": "Wilayat Mutrah", "Governorat": "Muscat Governorate", "Latitude": 23.582775508299999, "Longitude": 58.542255178300003 }, "geometry": { "type": "Point", "coordinates": [ 58.542255178290858, 23.582775508348824, 54.49458 ] } },
{ "type": "Feature", "properties": { "Name": "Dental Clinic", "Wilayat": "Wilayat Mutrah", "Governorat": "Muscat Governorate", "Latitude": 23.5826255395, "Longitude": 58.5425739732 }, "geometry": { "type": "Point", "coordinates": [ 58.542573973161062, 23.582625539545411, 54.20707 ] } },
{ "type": "Feature", "properties": { "Name": "Directorate of Health Services of Bauchar Wilayat", "Wilayat": "Wilayat Bawshar", "Governorat": "Muscat Governorate", "Latitude": 23.577423212100001, "Longitude": 58.399537864300001 }, "geometry": { "type": "Point", "coordinates": [ 58.399537864345319, 23.577423212084678, 24.46018 ] } },
{ "type": "Feature", "properties": { "Name": "Family Dental Surgery Clinic'", "Wilayat": "Wilayat Bawshar", "Governorat": "Muscat Governorate", "Latitude": 23.5811750057, "Longitude": 58.404135665799998 }, "geometry": { "type": "Point", "coordinates": [ 58.404135665798734, 23.581175005676183, 27.15367 ] } },
{ "type": "Feature", "properties": { "Name": "Arabian German Clinic", "Wilayat": "Wilayat Bawshar", "Governorat": "Muscat Governorate", "Latitude": 23.593620000200001, "Longitude": 58.385334440699999 }, "geometry": { "type": "Point", "coordinates": [ 58.385334440679379, 23.593620000237628, 12.454 ] } },
{ "type": "Feature", "properties": { "Name": "Middle East Polyclinic", "Wilayat": "Wilayat Bawshar", "Governorat": "Muscat Governorate", "Latitude": 23.597167128199999, "Longitude": 58.404279065399997 }, "geometry": { "type": "Point", "coordinates": [ 58.404279065373267, 23.597167128181468, 11.923 ] } },
{ "type": "Feature", "properties": { "Name": "Al Ansab Polyclinic", "Wilayat": "Wilayat Bawshar", "Governorat": "Muscat Governorate", "Latitude": 23.589388628599998, "Longitude": 58.404397921200001 }, "geometry": { "type": "Point", "coordinates": [ 58.404397921192157, 23.58938862855403, 11.773 ] } },
{ "type": "Feature", "properties": { "Name": "Al Manhal Clinic", "Wilayat": "Wilayat Bawshar", "Governorat": "Muscat Governorate", "Latitude": 23.587896516800001, "Longitude": 58.404602971400003 }, "geometry": { "type": "Point", "coordinates": [ 58.404602971409716, 23.587896516799489, 10.5725 ] } },
{ "type": "Feature", "properties": { "Name": "Al Makook Coordination Medical", "Wilayat": "Wilayat Bawshar", "Governorat": "Muscat Governorate", "Latitude": 23.5980220446, "Longitude": 58.394122837300003 }, "geometry": { "type": "Point", "coordinates": [ 58.39412283727787, 23.598022044601251, 12.058 ] } },
{ "type": "Feature", "properties": { "Name": "Al Marjan Health Centre", "Wilayat": "Wilayat Bawshar", "Governorat": "Muscat Governorate", "Latitude": 23.591703143299998, "Longitude": 58.379511679099998 }, "geometry": { "type": "Point", "coordinates": [ 58.37951167909501, 23.591703143262794, 13.519 ] } },
{ "type": "Feature", "properties": { "Name": "Chinese Medical Clinic", "Wilayat": "Wilayat Bawshar", "Governorat": "Muscat Governorate", "Latitude": 23.600055405900001, "Longitude": 58.382857968099998 }, "geometry": { "type": "Point", "coordinates": [ 58.38285796810878, 23.600055405928604, 14.77773 ] } },
{ "type": "Feature", "properties": { "Name": "White Smile Dentistry", "Wilayat": "Wilayat Mutrah", "Governorat": "Muscat Governorate", "Latitude": 23.6214148629, "Longitude": 58.494244079600001 }, "geometry": { "type": "Point", "coordinates": [ 58.49424407964235, 23.621414862924908, 16.81569 ] } },
{ "type": "Feature", "properties": { "Name": "Al Hadi Clinic", "Wilayat": "Wilayat Mutrah", "Governorat": "Muscat Governorate", "Latitude": 23.620485092799999, "Longitude": 58.4957301974 }, "geometry": { "type": "Point", "coordinates": [ 58.495730197375842, 23.620485092823571, 18.43438 ] } },
{ "type": "Feature", "properties": { "Name": "Muscat Eye Laser Centre", "Wilayat": "Wilayat Bawshar", "Governorat": "Muscat Governorate", "Latitude": 23.604399608400001, "Longitude": 58.450169283900003 }, "geometry": { "type": "Point", "coordinates": [ 58.450169283904216, 23.604399608426917, 27.82986 ] } },
{ "type": "Feature", "properties": { "Name": "Allied Diagnostic Centre", "Wilayat": "Wilayat Bawshar", "Governorat": "Muscat Governorate", "Latitude": 23.6092381399, "Longitude": 58.4549306268 }, "geometry": { "type": "Point", "coordinates": [ 58.454930626762696, 23.609238139945607, 30.25048 ] } },
{ "type": "Feature", "properties": { "Name": "Perfect Medical & Dental Polyclinic", "Wilayat": "Wilayat Bawshar", "Governorat": "Muscat Governorate", "Latitude": 23.6073807657, "Longitude": 58.452917174900001 }, "geometry": { "type": "Point", "coordinates": [ 58.452917174870166, 23.607380765730706, 18.99683 ] } },
{ "type": "Feature", "properties": { "Name": "Al Hashar Pharmacy Head Office", "Wilayat": "Wilayat Bawshar", "Governorat": "Muscat Governorate", "Latitude": 23.597860623399999, "Longitude": 58.446863072699998 }, "geometry": { "type": "Point", "coordinates": [ 58.446863072660321, 23.59786062339737, 22.40398 ] } },
{ "type": "Feature", "properties": { "Name": "Al Harub Medical Centre", "Wilayat": "Wilayat Bawshar", "Governorat": "Muscat Governorate", "Latitude": 23.611577280500001, "Longitude": 58.460584947900003 }, "geometry": { "type": "Point", "coordinates": [ 58.460584947874501, 23.611577280482578, 20.43444 ] } },
{ "type": "Feature", "properties": { "Name": "Harub Dental Clinic", "Wilayat": "Wilayat Mutrah", "Governorat": "Muscat Governorate", "Latitude": 23.618998724800001, "Longitude": 58.497847675599999 }, "geometry": { "type": "Point", "coordinates": [ 58.497847675568096, 23.618998724753538, 26.00098 ] } },
{ "type": "Feature", "properties": { "Name": "Al Qurum Veterinary Clinic", "Wilayat": "Wilayat Mutrah", "Governorat": "Muscat Governorate", "Latitude": 23.619348825599999, "Longitude": 58.499160376799999 }, "geometry": { "type": "Point", "coordinates": [ 58.499160376773034, 23.619348825575951, 18.31783 ] } },
{ "type": "Feature", "properties": { "Name": "Al Qurum Veterinary Clinic", "Wilayat": "Wilayat Mutrah", "Governorat": "Muscat Governorate", "Latitude": 23.6192242489, "Longitude": 58.499119759300001 }, "geometry": { "type": "Point", "coordinates": [ 58.499119759272538, 23.619224248859084, 14.44909 ] } },
{ "type": "Feature", "properties": { "Name": "Qurum Clinic", "Wilayat": "Wilayat Mutrah", "Governorat": "Muscat Governorate", "Latitude": 23.625765284, "Longitude": 58.486680876900003 }, "geometry": { "type": "Point", "coordinates": [ 58.486680876921206, 23.62576528403417, 25.427 ] } },
{ "type": "Feature", "properties": { "Name": "Al Massarrat Medical Centre", "Wilayat": "Wilayat Mutrah", "Governorat": "Muscat Governorate", "Latitude": 23.6130856931, "Longitude": 58.4991896911 }, "geometry": { "type": "Point", "coordinates": [ 58.499189691136628, 23.613085693087761, 18.187 ] } },
{ "type": "Feature", "properties": { "Name": "Dentak Dental Clinic", "Wilayat": "Wilayat Bawshar", "Governorat": "Muscat Governorate", "Latitude": 23.573709760500002, "Longitude": 58.415811711000003 }, "geometry": { "type": "Point", "coordinates": [ 58.415811710972633, 23.573709760504844, 56.12271 ] } },
{ "type": "Feature", "properties": { "Name": "Dar Al Saha Clinic", "Wilayat": "Wilayat Bawshar", "Governorat": "Muscat Governorate", "Latitude": 23.594239450100002, "Longitude": 58.441346364700003 }, "geometry": { "type": "Point", "coordinates": [ 58.44134636471906, 23.594239450127422, 22.52239 ] } },
{ "type": "Feature", "properties": { "Name": "Health 4 All Medical Centre", "Wilayat": "Wilayat Bawshar", "Governorat": "Muscat Governorate", "Latitude": 23.592713849300001, "Longitude": 58.423105088600003 }, "geometry": { "type": "Point", "coordinates": [ 58.423105088563936, 23.592713849251556, 25.56 ] } },
{ "type": "Feature", "properties": { "Name": "Sri Sri Ayurvedic Clinic", "Wilayat": "Wilayat Bawshar", "Governorat": "Muscat Governorate", "Latitude": 23.588732121900001, "Longitude": 58.420772817299998 }, "geometry": { "type": "Point", "coordinates": [ 58.420772817340804, 23.588732121887237, 26.59 ] } },
{ "type": "Feature", "properties": { "Name": "Al-Bashayer Eye Laser Centre", "Wilayat": "Wilayat Bawshar", "Governorat": "Muscat Governorate", "Latitude": 23.5804663768, "Longitude": 58.434170554300003 }, "geometry": { "type": "Point", "coordinates": [ 58.434170554315294, 23.580466376847376, 39.918 ] } },
{ "type": "Feature", "properties": { "Name": "Great Care Dental Clinic", "Wilayat": "Wilayat Bawshar", "Governorat": "Muscat Governorate", "Latitude": 23.597121217200002, "Longitude": 58.399348025000002 }, "geometry": { "type": "Point", "coordinates": [ 58.39934802500197, 23.597121217166841, 15.6595 ] } },
{ "type": "Feature", "properties": { "Name": "Al Mayias Dental Clinic", "Wilayat": "Wilayat Bawshar", "Governorat": "Muscat Governorate", "Latitude": 23.586354570800001, "Longitude": 58.395922021399997 }, "geometry": { "type": "Point", "coordinates": [ 58.39592202137456, 23.586354570776244, 21.79 ] } },
{ "type": "Feature", "properties": { "Name": "Denta Clinic", "Wilayat": "Wilayat Mutrah", "Governorat": "Muscat Governorate", "Latitude": 23.613530617399999, "Longitude": 58.498164401300002 }, "geometry": { "type": "Point", "coordinates": [ 58.498164401283425, 23.613530617403249, 17.439 ] } },
{ "type": "Feature", "properties": { "Name": "Al-Hayat Polyclinic", "Wilayat": "Wilayat Bawshar", "Governorat": "Muscat Governorate", "Latitude": 23.584423911199998, "Longitude": 58.432583432800001 }, "geometry": { "type": "Point", "coordinates": [ 58.432583432839451, 23.584423911204635, 35.535 ] } },
{ "type": "Feature", "properties": { "Name": "Bawsher General Polyclinic", "Wilayat": "Wilayat Bawshar", "Governorat": "Muscat Governorate", "Latitude": 23.587820679299998, "Longitude": 58.431616454500002 }, "geometry": { "type": "Point", "coordinates": [ 58.431616454521141, 23.587820679268969, 26.737 ] } },
{ "type": "Feature", "properties": { "Name": "Al Ansab Medical Center", "Wilayat": "Wilayat Bawshar", "Governorat": "Muscat Governorate", "Latitude": 23.535681332199999, "Longitude": 58.351061491700001 }, "geometry": { "type": "Point", "coordinates": [ 58.351061491671473, 23.535681332222634, 64.36234 ] } },
{ "type": "Feature", "properties": { "Name": "Emmar International Holistic Medical Centre", "Wilayat": "Wilayat Bawshar", "Governorat": "Muscat Governorate", "Latitude": 23.592303868199998, "Longitude": 58.359719927900002 }, "geometry": { "type": "Point", "coordinates": [ 58.359719927925561, 23.592303868224661, 21.5 ] } },
{ "type": "Feature", "properties": { "Name": "Muscat Dental Clinic", "Wilayat": "Wilayat Bawshar", "Governorat": "Muscat Governorate", "Latitude": 23.6008178467, "Longitude": 58.373906409200004 }, "geometry": { "type": "Point", "coordinates": [ 58.373906409176968, 23.600817846661744, 14.76184 ] } },
{ "type": "Feature", "properties": { "Name": "Al Jamal Health Centre", "Wilayat": "Wilayat Bawshar", "Governorat": "Muscat Governorate", "Latitude": 23.5951674961, "Longitude": 58.376814067200002 }, "geometry": { "type": "Point", "coordinates": [ 58.376814067158165, 23.595167496120354, 18.013 ] } },
{ "type": "Feature", "properties": { "Name": "Al Marooj Health Centre", "Wilayat": "Wilayat Bawshar", "Governorat": "Muscat Governorate", "Latitude": 23.599717633400001, "Longitude": 58.378170227299996 }, "geometry": { "type": "Point", "coordinates": [ 58.378170227328297, 23.599717633415601, 15.0 ] } },
{ "type": "Feature", "properties": { "Name": "Life Care Dental Clinic", "Wilayat": "Wilayat As Seeb", "Governorat": "Muscat Governorate", "Latitude": 23.601518030499999, "Longitude": 58.221058623200001 }, "geometry": { "type": "Point", "coordinates": [ 58.221058623215377, 23.601518030519578, 36.717 ] } },
{ "type": "Feature", "properties": { "Name": "The Gulf Orthodentic Centre", "Wilayat": "Wilayat As Seeb", "Governorat": "Muscat Governorate", "Latitude": 23.591737468800002, "Longitude": 58.245716792400003 }, "geometry": { "type": "Point", "coordinates": [ 58.245716792365577, 23.591737468787056, 32.34803 ] } },
{ "type": "Feature", "properties": { "Name": "AL Aseriya Dental Clinic", "Wilayat": "Wilayat As Seeb", "Governorat": "Muscat Governorate", "Latitude": 23.637875517299999, "Longitude": 58.202811728500002 }, "geometry": { "type": "Point", "coordinates": [ 58.202811728481727, 23.637875517256159, 29.79209 ] } },
{ "type": "Feature", "properties": { "Name": "Al Yasmin Clinic", "Wilayat": "Wilayat As Seeb", "Governorat": "Muscat Governorate", "Latitude": 23.6361770444, "Longitude": 58.200858245799999 }, "geometry": { "type": "Point", "coordinates": [ 58.200858245779322, 23.636177044357098, 32.50102 ] } },
{ "type": "Feature", "properties": { "Name": "Al Aghbary Medical Centre", "Wilayat": "Wilayat As Seeb", "Governorat": "Muscat Governorate", "Latitude": 23.635871967899998, "Longitude": 58.1978504848 }, "geometry": { "type": "Point", "coordinates": [ 58.197850484764167, 23.635871967927059, 30.18608 ] } },
{ "type": "Feature", "properties": { "Name": "National Medical Centre", "Wilayat": "Wilayat As Seeb", "Governorat": "Muscat Governorate", "Latitude": 23.628788359800001, "Longitude": 58.209336595899998 }, "geometry": { "type": "Point", "coordinates": [ 58.209336595907708, 23.628788359771299, 28.19806 ] } },
{ "type": "Feature", "properties": { "Name": "A'Seeb Veterinary Clinic", "Wilayat": "Wilayat As Seeb", "Governorat": "Muscat Governorate", "Latitude": 23.632542217200001, "Longitude": 58.188392511499998 }, "geometry": { "type": "Point", "coordinates": [ 58.188392511488466, 23.632542217202033, 29.75214 ] } },
{ "type": "Feature", "properties": { "Name": "Al Thara Polyclinic", "Wilayat": "Wilayat As Seeb", "Governorat": "Muscat Governorate", "Latitude": 23.632571796000001, "Longitude": 58.215716114599999 }, "geometry": { "type": "Point", "coordinates": [ 58.215716114645417, 23.63257179599249, 26.17965 ] } },
{ "type": "Feature", "properties": { "Name": "Al Shadi Medical Centre", "Wilayat": "Wilayat As Seeb", "Governorat": "Muscat Governorate", "Latitude": 23.6946959498, "Longitude": 58.151109711700002 }, "geometry": { "type": "Point", "coordinates": [ 58.151109711712088, 23.694695949816019, 10.32599 ] } },
{ "type": "Feature", "properties": { "Name": "Al Badiya Clinic", "Wilayat": "Wilayat As Seeb", "Governorat": "Muscat Governorate", "Latitude": 23.681284113299998, "Longitude": 58.183968624599999 }, "geometry": { "type": "Point", "coordinates": [ 58.183968624618124, 23.68128411333592, 12.741 ] } },
{ "type": "Feature", "properties": { "Name": "Burj Al Nahdha Clinic", "Wilayat": "Wilayat As Seeb", "Governorat": "Muscat Governorate", "Latitude": 23.627050450399999, "Longitude": 58.237358261700003 }, "geometry": { "type": "Point", "coordinates": [ 58.237358261673748, 23.627050450407804, 17.84021 ] } },
{ "type": "Feature", "properties": { "Name": "Shinaj Dental Clinic", "Wilayat": "Wilayat As Seeb", "Governorat": "Muscat Governorate", "Latitude": 23.625664690299999, "Longitude": 58.238247949399998 }, "geometry": { "type": "Point", "coordinates": [ 58.238247949359881, 23.625664690288669, 13.45937 ] } },
{ "type": "Feature", "properties": { "Name": "Al Manasir Polyclinic", "Wilayat": "Wilayat As Seeb", "Governorat": "Muscat Governorate", "Latitude": 23.6828875916, "Longitude": 58.177920170299998 }, "geometry": { "type": "Point", "coordinates": [ 58.177920170349616, 23.682887591609692, 7.462 ] } },
{ "type": "Feature", "properties": { "Name": "Scientific Polyclinic", "Wilayat": "Wilayat As Seeb", "Governorat": "Muscat Governorate", "Latitude": 23.6833216532, "Longitude": 58.177113417800001 }, "geometry": { "type": "Point", "coordinates": [ 58.177113417842321, 23.683321653211078, 15.4 ] } },
{ "type": "Feature", "properties": { "Name": "Capital Clinic", "Wilayat": "Wilayat As Seeb", "Governorat": "Muscat Governorate", "Latitude": 23.677458061399999, "Longitude": 58.189127416300003 }, "geometry": { "type": "Point", "coordinates": [ 58.189127416303577, 23.677458061414633, 12.5795 ] } },
{ "type": "Feature", "properties": { "Name": "Al Rafidian Clinic", "Wilayat": "Wilayat As Seeb", "Governorat": "Muscat Governorate", "Latitude": 23.675957604800001, "Longitude": 58.137091795099998 }, "geometry": { "type": "Point", "coordinates": [ 58.137091795056214, 23.675957604826117, 14.921 ] } },
{ "type": "Feature", "properties": { "Name": "AL Maram Clinic", "Wilayat": "Wilayat As Seeb", "Governorat": "Muscat Governorate", "Latitude": 23.676846444599999, "Longitude": 58.135343495000001 }, "geometry": { "type": "Point", "coordinates": [ 58.135343494951158, 23.676846444593373, 22.00842 ] } },
{ "type": "Feature", "properties": { "Name": "Anwar Clinic", "Wilayat": "Wilayat As Seeb", "Governorat": "Muscat Governorate", "Latitude": 23.680709438200001, "Longitude": 58.186205889699998 }, "geometry": { "type": "Point", "coordinates": [ 58.186205889663391, 23.68070943823291, 8.325 ] } },
{ "type": "Feature", "properties": { "Name": "Al Sadip Specialized Polyclinic", "Wilayat": "Wilayat As Seeb", "Governorat": "Muscat Governorate", "Latitude": 23.614893590200001, "Longitude": 58.220939664699998 }, "geometry": { "type": "Point", "coordinates": [ 58.220939664705966, 23.614893590216688, 28.07 ] } },
{ "type": "Feature", "properties": { "Name": "Dar Al Samaa Medical Clinic", "Wilayat": "Wilayat As Seeb", "Governorat": "Muscat Governorate", "Latitude": 23.6130345109, "Longitude": 58.226106618099998 }, "geometry": { "type": "Point", "coordinates": [ 58.226106618078028, 23.613034510935314, 26.521 ] } },
{ "type": "Feature", "properties": { "Name": "Al Malilki Dental Clinic", "Wilayat": "Wilayat As Seeb", "Governorat": "Muscat Governorate", "Latitude": 23.628131186800001, "Longitude": 58.195275299000002 }, "geometry": { "type": "Point", "coordinates": [ 58.195275298972177, 23.628131186831613, 36.176 ] } },
{ "type": "Feature", "properties": { "Name": "Al Sana Clinic", "Wilayat": "Wilayat As Seeb", "Governorat": "Muscat Governorate", "Latitude": 23.629212872299998, "Longitude": 58.198284949200001 }, "geometry": { "type": "Point", "coordinates": [ 58.198284949197856, 23.629212872347001, 31.222 ] } },
{ "type": "Feature", "properties": { "Name": "Al Khoud Clinic", "Wilayat": "Wilayat As Seeb", "Governorat": "Muscat Governorate", "Latitude": 23.630895113699999, "Longitude": 58.197070732 }, "geometry": { "type": "Point", "coordinates": [ 58.197070732046789, 23.630895113681234, 27.503 ] } },
{ "type": "Feature", "properties": { "Name": "Babil Dental Clinic", "Wilayat": "Wilayat As Seeb", "Governorat": "Muscat Governorate", "Latitude": 23.6315002744, "Longitude": 58.197767214300001 }, "geometry": { "type": "Point", "coordinates": [ 58.197767214314077, 23.631500274359507, 40.39021 ] } },
{ "type": "Feature", "properties": { "Name": "Bin Said Polyclinic", "Wilayat": "Wilayat As Seeb", "Governorat": "Muscat Governorate", "Latitude": 23.661793234099999, "Longitude": 58.200607809300003 }, "geometry": { "type": "Point", "coordinates": [ 58.2006078092842, 23.661793234073297, 10.401 ] } },
{ "type": "Feature", "properties": { "Name": "Al Kawakeb Medical Complex", "Wilayat": "Wilayat As Seeb", "Governorat": "Muscat Governorate", "Latitude": 23.6476882111, "Longitude": 58.201851921900001 }, "geometry": { "type": "Point", "coordinates": [ 58.201851921858832, 23.647688211090809, 16.166 ] } },
{ "type": "Feature", "properties": { "Name": "Indian Ayurvedic Clinic", "Wilayat": "Wilayat As Seeb", "Governorat": "Muscat Governorate", "Latitude": 23.6099936528, "Longitude": 58.240405564100001 }, "geometry": { "type": "Point", "coordinates": [ 58.240405564085151, 23.609993652792593, 22.417 ] } },
{ "type": "Feature", "properties": { "Name": "Al Sheradi Clinic", "Wilayat": "Wilayat As Seeb", "Governorat": "Muscat Governorate", "Latitude": 23.683661075900002, "Longitude": 58.184588718100002 }, "geometry": { "type": "Point", "coordinates": [ 58.184588718132908, 23.683661075889578, 19.69213 ] } },
{ "type": "Feature", "properties": { "Name": "Al Man Alhosni Clinic", "Wilayat": "Wilayat As Seeb", "Governorat": "Muscat Governorate", "Latitude": 23.668509991899999, "Longitude": 58.154297824399997 }, "geometry": { "type": "Point", "coordinates": [ 58.154297824439809, 23.66850999189624, 11.73 ] } },
{ "type": "Feature", "properties": { "Name": "Assada Polyclinic", "Wilayat": "Wilayat As Seeb", "Governorat": "Muscat Governorate", "Latitude": 23.655403571800001, "Longitude": 58.120766360499999 }, "geometry": { "type": "Point", "coordinates": [ 58.120766360469915, 23.655403571809725, 37.16405 ] } },
{ "type": "Feature", "properties": { "Name": "A' Seeb Health Centre", "Wilayat": "Wilayat As Seeb", "Governorat": "Muscat Governorate", "Latitude": 23.6729561549, "Longitude": 58.147620807199999 }, "geometry": { "type": "Point", "coordinates": [ 58.14762080724423, 23.67295615486838, 12.769 ] } },
{ "type": "Feature", "properties": { "Name": "Morjan Burka Medical Centre", "Wilayat": "Wilayat As Seeb", "Governorat": "Muscat Governorate", "Latitude": 23.668007872299999, "Longitude": 58.184431704700003 }, "geometry": { "type": "Point", "coordinates": [ 58.18443170470406, 23.668007872276192, 17.12609 ] } },
{ "type": "Feature", "properties": { "Name": "Kashan Medical Centre", "Wilayat": "Wilayat As Seeb", "Governorat": "Muscat Governorate", "Latitude": 23.623467585499998, "Longitude": 58.204019236500002 }, "geometry": { "type": "Point", "coordinates": [ 58.204019236478103, 23.623467585452257, 33.46601 ] } },
{ "type": "Feature", "properties": { "Name": "Star Medical Centre", "Wilayat": "Wilayat Barka", "Governorat": "Al Batinah South Governorate", "Latitude": 23.6663491893, "Longitude": 57.882766199099997 }, "geometry": { "type": "Point", "coordinates": [ 57.882766199103557, 23.666349189335321, 31.39541 ] } },
{ "type": "Feature", "properties": { "Name": "Al Karha National Clinic", "Wilayat": "Wilayat Barka", "Governorat": "Al Batinah South Governorate", "Latitude": 23.7070483195, "Longitude": 57.894859750899997 }, "geometry": { "type": "Point", "coordinates": [ 57.89485975087684, 23.707048319533307, 8.07423 ] } },
{ "type": "Feature", "properties": { "Name": "Reyam Dental Clinic", "Wilayat": "Wilayat Barka", "Governorat": "Al Batinah South Governorate", "Latitude": 23.669664390099999, "Longitude": 57.8851753139 }, "geometry": { "type": "Point", "coordinates": [ 57.88517531388505, 23.669664390143534, 37.27891 ] } },
{ "type": "Feature", "properties": { "Name": "Shinas Medical Centre - Dental Clinic", "Wilayat": "Wilayat Barka", "Governorat": "Al Batinah South Governorate", "Latitude": 23.666609551600001, "Longitude": 57.890118084199997 }, "geometry": { "type": "Point", "coordinates": [ 57.890118084179825, 23.666609551550032, 26.95489 ] } },
{ "type": "Feature", "properties": { "Name": "An Naseem Health Centre", "Wilayat": "Wilayat Barka", "Governorat": "Al Batinah South Governorate", "Latitude": 23.682561529299999, "Longitude": 57.976162571700002 }, "geometry": { "type": "Point", "coordinates": [ 57.976162571668517, 23.682561529287138, 15.97411 ] } },
{ "type": "Feature", "properties": { "Name": "Al Zahrawi Clinic", "Wilayat": "Wilayat Barka", "Governorat": "Al Batinah South Governorate", "Latitude": 23.667231895, "Longitude": 57.886832687899997 }, "geometry": { "type": "Point", "coordinates": [ 57.886832687886553, 23.667231894971717, 24.364 ] } },
{ "type": "Feature", "properties": { "Name": "Al Yasa Polyclinic", "Wilayat": "Wilayat Barka", "Governorat": "Al Batinah South Governorate", "Latitude": 23.6702924143, "Longitude": 57.970481278800001 }, "geometry": { "type": "Point", "coordinates": [ 57.970481278816038, 23.670292414270339, 21.455 ] } },
{ "type": "Feature", "properties": { "Name": "Barka Health Center", "Wilayat": "Wilayat Barka", "Governorat": "Al Batinah South Governorate", "Latitude": 23.707004947000001, "Longitude": 57.8671347035 }, "geometry": { "type": "Point", "coordinates": [ 57.867134703472594, 23.707004946956769, 7.29373 ] } },
{ "type": "Feature", "properties": { "Name": "New AL Anwaar Clinic", "Wilayat": "Wilayat Barka", "Governorat": "Al Batinah South Governorate", "Latitude": 23.69850255, "Longitude": 57.778898292500003 }, "geometry": { "type": "Point", "coordinates": [ 57.778898292460347, 23.698502550031112, 20.16356 ] } },
{ "type": "Feature", "properties": { "Name": "Touqa Specialized Medical Centre", "Wilayat": "Wilayat Al Musanaah", "Governorat": "Al Batinah South Governorate", "Latitude": 23.744803740799998, "Longitude": 57.62010244 }, "geometry": { "type": "Point", "coordinates": [ 57.620102439966686, 23.74480374084019, 22.68908 ] } },
{ "type": "Feature", "properties": { "Name": "Al Hadheeb Clinic", "Wilayat": "Wilayat Barka", "Governorat": "Al Batinah South Governorate", "Latitude": 23.714983207100001, "Longitude": 57.7461533229 }, "geometry": { "type": "Point", "coordinates": [ 57.746153322920101, 23.714983207098246, 16.85659 ] } },
{ "type": "Feature", "properties": { "Name": "Al Raha Clinic", "Wilayat": "Wilayat Qurayyat", "Governorat": "Muscat Governorate", "Latitude": 23.265160743599999, "Longitude": 58.918334471100003 }, "geometry": { "type": "Point", "coordinates": [ 58.918334471059282, 23.265160743638791, 12.10174 ] } },
{ "type": "Feature", "properties": { "Name": "Al Sifah Health Centre", "Wilayat": "Wilayat Muscat", "Governorat": "Muscat Governorate", "Latitude": 23.426188011800001, "Longitude": 58.782060796899998 }, "geometry": { "type": "Point", "coordinates": [ 58.78206079692179, 23.426188011754615, 16.27779 ] } },
{ "type": "Feature", "properties": { "Name": "Umm Salma Polyclinic", "Wilayat": "Wilayat Al Amrat", "Governorat": "Muscat Governorate", "Latitude": 23.4737055525, "Longitude": 58.493053124900001 }, "geometry": { "type": "Point", "coordinates": [ 58.493053124860459, 23.473705552475749, 136.37867 ] } },
{ "type": "Feature", "properties": { "Name": "Wadi Al Mawal Health Centre", "Wilayat": "Wilayat Wadi Al Maawil", "Governorat": "Al Batinah South Governorate", "Latitude": 23.4721608716, "Longitude": 57.834178244999997 }, "geometry": { "type": "Point", "coordinates": [ 57.834178244973721, 23.472160871581682, 212.31869 ] } },
{ "type": "Feature", "properties": { "Name": "Al Taqwa Medical Centre", "Wilayat": "Wilayat Nakhal", "Governorat": "Al Batinah South Governorate", "Latitude": 23.405540169199998, "Longitude": 57.819466671100002 }, "geometry": { "type": "Point", "coordinates": [ 57.81946667105889, 23.405540169224135, 288.64593 ] } },
{ "type": "Feature", "properties": { "Name": "Al Anfal General Medical Clinic", "Wilayat": "Wilayat Samail", "Governorat": "Ad Dakhliyah Governorate", "Latitude": 23.287013708900002, "Longitude": 57.947407466800001 }, "geometry": { "type": "Point", "coordinates": [ 57.947407466844304, 23.287013708875964, 406.46474 ] } },
{ "type": "Feature", "properties": { "Name": null, "Wilayat": "Wilayat Samail", "Governorat": "Ad Dakhliyah Governorate", "Latitude": 23.301104760600001, "Longitude": 57.952394556599998 }, "geometry": { "type": "Point", "coordinates": [ 57.952394556625066, 23.301104760594459, 410.74335 ] } },
{ "type": "Feature", "properties": { "Name": "Al Abyad Health Centre", "Wilayat": "Wilayat Nakhal", "Governorat": "Al Batinah South Governorate", "Latitude": 23.478468079900001, "Longitude": 57.679781895399998 }, "geometry": { "type": "Point", "coordinates": [ 57.679781895429763, 23.47846807993313, 191.2 ] } },
{ "type": "Feature", "properties": { "Name": "Star Clinic", "Wilayat": "Wilayat Mutrah", "Governorat": "Muscat Governorate", "Latitude": 23.597172944099999, "Longitude": 58.542688712599997 }, "geometry": { "type": "Point", "coordinates": [ 58.542688712569742, 23.597172944122836, 46.9907 ] } },
{ "type": "Feature", "properties": { "Name": "Lama Bolyclinic", "Wilayat": "Wilayat Sohar", "Governorat": "Al Batinah North Governorate", "Latitude": 24.424186524, "Longitude": 56.609582283800002 }, "geometry": { "type": "Point", "coordinates": [ 56.609582283789884, 24.424186523955616, 35.92993 ] } },
{ "type": "Feature", "properties": { "Name": "AL Qabail Clinic", "Wilayat": "Wilayat Sohar", "Governorat": "Al Batinah North Governorate", "Latitude": 24.422708670900001, "Longitude": 56.615647291199998 }, "geometry": { "type": "Point", "coordinates": [ 56.615647291246681, 24.422708670914908, 41.10381 ] } },
{ "type": "Feature", "properties": { "Name": "Barahat Sohar Clinic", "Wilayat": "Wilayat Sohar", "Governorat": "Al Batinah North Governorate", "Latitude": 24.369636912400001, "Longitude": 56.744976643699999 }, "geometry": { "type": "Point", "coordinates": [ 56.744976643678115, 24.369636912414716, 16.07806 ] } },
{ "type": "Feature", "properties": { "Name": "AL Raffah Health Center", "Wilayat": "Wilayat Sohar", "Governorat": "Al Batinah North Governorate", "Latitude": 24.3507721637, "Longitude": 56.7335480542 }, "geometry": { "type": "Point", "coordinates": [ 56.733548054174094, 24.350772163698995, 26.32759 ] } },
{ "type": "Feature", "properties": { "Name": "Extended Health Centre", "Wilayat": "Wilayat Sohar", "Governorat": "Al Batinah North Governorate", "Latitude": 24.347336541200001, "Longitude": 56.736177472199998 }, "geometry": { "type": "Point", "coordinates": [ 56.736177472241366, 24.347336541187413, 23.25347 ] } },
{ "type": "Feature", "properties": { "Name": null, "Wilayat": "Wilayat Sohar", "Governorat": "Al Batinah North Governorate", "Latitude": 24.388011630499999, "Longitude": 56.730653634799999 }, "geometry": { "type": "Point", "coordinates": [ 56.730653634786684, 24.388011630508331, 6.49437 ] } },
{ "type": "Feature", "properties": { "Name": null, "Wilayat": "Wilayat Sohar", "Governorat": "Al Batinah North Governorate", "Latitude": 24.456775523499999, "Longitude": 56.651833793100003 }, "geometry": { "type": "Point", "coordinates": [ 56.651833793132027, 24.45677552349871, 13.44936 ] } },
{ "type": "Feature", "properties": { "Name": null, "Wilayat": "Wilayat Al Buraymi", "Governorat": "Al Buraymi Governorate", "Latitude": 24.0363094589, "Longitude": 56.167523945200003 }, "geometry": { "type": "Point", "coordinates": [ 56.167523945166998, 24.036309458944164, 632.00623 ] } },
{ "type": "Feature", "properties": { "Name": "Janaen Saraa Polyclinic", "Wilayat": "Wilayat Al Buraymi", "Governorat": "Al Buraymi Governorate", "Latitude": 24.246989968499999, "Longitude": 55.7817035606 }, "geometry": { "type": "Point", "coordinates": [ 55.781703560633325, 24.246989968545424, 306.33661 ] } },
{ "type": "Feature", "properties": { "Name": "AL Naseem Polyclinic", "Wilayat": "Wilayat Al Buraymi", "Governorat": "Al Buraymi Governorate", "Latitude": 24.2429974454, "Longitude": 55.774154000400003 }, "geometry": { "type": "Point", "coordinates": [ 55.774154000419607, 24.242997445375067, 297.58005 ] } },
{ "type": "Feature", "properties": { "Name": null, "Wilayat": "Wilayat Saham", "Governorat": "Al Batinah North Governorate", "Latitude": 24.1261973085, "Longitude": 56.832394770999997 }, "geometry": { "type": "Point", "coordinates": [ 56.832394771033101, 24.126197308479135, 38.55246 ] } },
{ "type": "Feature", "properties": { "Name": null, "Wilayat": "Wilayat Saham", "Governorat": "Al Batinah North Governorate", "Latitude": 24.1835120581, "Longitude": 56.857273799200001 }, "geometry": { "type": "Point", "coordinates": [ 56.857273799220479, 24.183512058113457, 11.25685 ] } },
{ "type": "Feature", "properties": { "Name": "Hasson Soham Clinic", "Wilayat": "Wilayat Saham", "Governorat": "Al Batinah North Governorate", "Latitude": 24.152005582800001, "Longitude": 56.881167161100002 }, "geometry": { "type": "Point", "coordinates": [ 56.881167161106085, 24.15200558275232, 17.0183 ] } },
{ "type": "Feature", "properties": { "Name": null, "Wilayat": "Wilayat Saham", "Governorat": "Al Batinah North Governorate", "Latitude": 24.1602497087, "Longitude": 56.892525130400003 }, "geometry": { "type": "Point", "coordinates": [ 56.892525130409446, 24.16024970872267, 8.325 ] } },
{ "type": "Feature", "properties": { "Name": "Juma Bin Abdallah Al Braiki Clinic", "Wilayat": "Wilayat Saham", "Governorat": "Al Batinah North Governorate", "Latitude": 24.088623045799999, "Longitude": 56.968646802000002 }, "geometry": { "type": "Point", "coordinates": [ 56.968646802004479, 24.088623045816355, 6.94578 ] } },
{ "type": "Feature", "properties": { "Name": null, "Wilayat": "Wilayat Shinas", "Governorat": "Al Batinah North Governorate", "Latitude": 24.796112675500002, "Longitude": 56.227896660699997 }, "geometry": { "type": "Point", "coordinates": [ 56.227896660706207, 24.796112675540339, 235.02491 ] } },
{ "type": "Feature", "properties": { "Name": "Areej Medical Complex", "Wilayat": "Wilayat Al Buraymi", "Governorat": "Al Buraymi Governorate", "Latitude": 24.2680536606, "Longitude": 55.795189773700002 }, "geometry": { "type": "Point", "coordinates": [ 55.795189773699079, 24.268053660625721, 306.46807 ] } },
{ "type": "Feature", "properties": { "Name": "AL Waha Medical Clinic", "Wilayat": "Wilayat Al Buraymi", "Governorat": "Al Buraymi Governorate", "Latitude": 24.2668191552, "Longitude": 55.784073802199998 }, "geometry": { "type": "Point", "coordinates": [ 55.784073802174433, 24.266819155182187, 302.71525 ] } },
{ "type": "Feature", "properties": { "Name": "AL Muna Medical Clinic", "Wilayat": "Wilayat Sohar", "Governorat": "Al Batinah North Governorate", "Latitude": 24.306143134500001, "Longitude": 56.769865945900001 }, "geometry": { "type": "Point", "coordinates": [ 56.769865945855948, 24.306143134510648, 22.75405 ] } },
{ "type": "Feature", "properties": { "Name": "Shinas Hospital", "Wilayat": "Wilayat Shinas", "Governorat": "Al Batinah North Governorate", "Latitude": 24.865290407500002, "Longitude": 56.387531182700002 }, "geometry": { "type": "Point", "coordinates": [ 56.387531182734378, 24.865290407532029, 16.31334 ] } },
{ "type": "Feature", "properties": { "Name": null, "Wilayat": "Wilayat Shinas", "Governorat": "Al Batinah North Governorate", "Latitude": 24.886668538399999, "Longitude": 56.389519977500001 }, "geometry": { "type": "Point", "coordinates": [ 56.389519977542108, 24.886668538423535, 15.16224 ] } },
{ "type": "Feature", "properties": { "Name": null, "Wilayat": "Wilayat Shinas", "Governorat": "Al Batinah North Governorate", "Latitude": 24.7420205522, "Longitude": 56.448613760299999 }, "geometry": { "type": "Point", "coordinates": [ 56.448613760262049, 24.742020552230858, 12.27469 ] } },
{ "type": "Feature", "properties": { "Name": "Kumzar Health Center", "Wilayat": "Wilayat Khasab", "Governorat": "Musandam Governorate", "Latitude": 26.3382526147, "Longitude": 56.415558670099998 }, "geometry": { "type": "Point", "coordinates": [ 56.415558670106691, 26.338252614740178, 11.53567 ] } },
{ "type": "Feature", "properties": { "Name": "Khasab Extended Health Center", "Wilayat": "Wilayat Khasab", "Governorat": "Musandam Governorate", "Latitude": 26.187884179499999, "Longitude": 56.4180388642 }, "geometry": { "type": "Point", "coordinates": [ 56.418038864234362, 26.187884179453562, 9.59018 ] } },
{ "type": "Feature", "properties": { "Name": "Bukha Hospital", "Wilayat": "Wilayat Bukha", "Governorat": "Musandam Governorate", "Latitude": 26.1422523508, "Longitude": 56.152791436100003 }, "geometry": { "type": "Point", "coordinates": [ 56.152791436082978, 26.142252350846849, 5.21666 ] } },
{ "type": "Feature", "properties": { "Name": "Dghq - Musandam", "Wilayat": "Wilayat Khasab", "Governorat": "Musandam Governorate", "Latitude": 26.182600305299999, "Longitude": 56.247460230500003 }, "geometry": { "type": "Point", "coordinates": [ 56.247460230541975, 26.182600305314505, 19.76962 ] } },
{ "type": "Feature", "properties": { "Name": "Lima Health Center", "Wilayat": "Wilayat Khasab", "Governorat": "Musandam Governorate", "Latitude": 25.940704157700001, "Longitude": 56.425058937599999 }, "geometry": { "type": "Point", "coordinates": [ 56.425058937563122, 25.940704157722731, 10.05028 ] } },
{ "type": "Feature", "properties": { "Name": "Hamasa Polyclinic", "Wilayat": "Wilayat Al Buraymi", "Governorat": "Al Buraymi Governorate", "Latitude": 24.245504530400002, "Longitude": 55.778131428599998 }, "geometry": { "type": "Point", "coordinates": [ 55.778131428638879, 24.245504530430178, 300.09111 ] } },
{ "type": "Feature", "properties": { "Name": "Al Nailen Clinic", "Wilayat": "Wilayat Mahadah", "Governorat": "Al Buraymi Governorate", "Latitude": 24.896960654400001, "Longitude": 55.858478359199999 }, "geometry": { "type": "Point", "coordinates": [ 55.858478359186662, 24.896960654437517, 236.09613 ] } },
{ "type": "Feature", "properties": { "Name": "THUMARAIT WOHS", "Wilayat": "Wilayat Thumrayt", "Governorat": "Dhofar Governorate", "Latitude": 17.621880427099999, "Longitude": 54.044593432699997 }, "geometry": { "type": "Point", "coordinates": [ 54.04459343270986, 17.621880427099416, 487.28178 ] } },
{ "type": "Feature", "properties": { "Name": "Dhahbon Health Center", "Wilayat": "Wilayat Thumrayt", "Governorat": "Dhofar Governorate", "Latitude": 17.5914867149, "Longitude": 54.3386302065 }, "geometry": { "type": "Point", "coordinates": [ 54.338630206524684, 17.591486714935272, 507.17114 ] } },
{ "type": "Feature", "properties": { "Name": "Mudayy Health Center", "Wilayat": "Wilayat Thumrayt", "Governorat": "Dhofar Governorate", "Latitude": 17.482840053699999, "Longitude": 53.348910865800001 }, "geometry": { "type": "Point", "coordinates": [ 53.348910865813558, 17.482840053684065, 531.11896 ] } },
{ "type": "Feature", "properties": { "Name": null, "Wilayat": "Wilayat Rakhyut", "Governorat": "Dhofar Governorate", "Latitude": 16.8214718501, "Longitude": 53.470222333199999 }, "geometry": { "type": "Point", "coordinates": [ 53.47022233315483, 16.821471850112093, 977.19039 ] } },
{ "type": "Feature", "properties": { "Name": null, "Wilayat": "Wilayat Dalkut", "Governorat": "Dhofar Governorate", "Latitude": 16.695463298899998, "Longitude": 53.158718595400003 }, "geometry": { "type": "Point", "coordinates": [ 53.158718595377714, 16.695463298871697, 685.31751 ] } },
{ "type": "Feature", "properties": { "Name": null, "Wilayat": "Wilayat Dalkut", "Governorat": "Dhofar Governorate", "Latitude": 16.7046393018, "Longitude": 53.2385444222 }, "geometry": { "type": "Point", "coordinates": [ 53.238544422175728, 16.704639301806331, 21.56 ] } },
{ "type": "Feature", "properties": { "Name": "HERWEB MEDICAL CENTER", "Wilayat": "Wilayat Al Mazyunah", "Governorat": "Dhofar Governorate", "Latitude": 17.069887868399999, "Longitude": 52.943537979399999 }, "geometry": { "type": "Point", "coordinates": [ 52.943537979385248, 17.069887868374206, 816.31081 ] } },
{ "type": "Feature", "properties": { "Name": "HEJFEET MEDICAL SERVICE", "Wilayat": "Wilayat Salalah", "Governorat": "Dhofar Governorate", "Latitude": 17.231468292100001, "Longitude": 54.031018828800001 }, "geometry": { "type": "Point", "coordinates": [ 54.031018828799866, 17.231468292091598, 903.0 ] } },
{ "type": "Feature", "properties": { "Name": null, "Wilayat": "Wilayat Salalah", "Governorat": "Dhofar Governorate", "Latitude": 17.042297953199999, "Longitude": 54.060171327100001 }, "geometry": { "type": "Point", "coordinates": [ 54.06017132709335, 17.042297953164848, 37.6 ] } },
{ "type": "Feature", "properties": { "Name": "AL RAZI MEDICAL COMPLEX", "Wilayat": "Wilayat Salalah", "Governorat": "Dhofar Governorate", "Latitude": 17.049532703099999, "Longitude": 54.150423406100003 }, "geometry": { "type": "Point", "coordinates": [ 54.150423406071141, 17.049532703073872, 9.0 ] } },
{ "type": "Feature", "properties": { "Name": "AL RIYADH SPECIALIZED MEDICAL C", "Wilayat": "Wilayat Salalah", "Governorat": "Dhofar Governorate", "Latitude": 17.016809962899998, "Longitude": 54.110530936899998 }, "geometry": { "type": "Point", "coordinates": [ 54.110530936856179, 17.016809962943032, 28.44718 ] } },
{ "type": "Feature", "properties": { "Name": "ALAMEEN CLINIC", "Wilayat": "Wilayat Salalah", "Governorat": "Dhofar Governorate", "Latitude": 17.019662370300001, "Longitude": 54.110197485999997 }, "geometry": { "type": "Point", "coordinates": [ 54.110197486041329, 17.019662370267781, 36.89462 ] } },
{ "type": "Feature", "properties": { "Name": "OOF MEDICAL CENTER", "Wilayat": "Wilayat Salalah", "Governorat": "Dhofar Governorate", "Latitude": 17.019604053799998, "Longitude": 54.033024067299998 }, "geometry": { "type": "Point", "coordinates": [ 54.033024067338161, 17.019604053839512, 36.20368 ] } },
{ "type": "Feature", "properties": { "Name": null, "Wilayat": "Wilayat Salalah", "Governorat": "Dhofar Governorate", "Latitude": 17.019787985299999, "Longitude": 54.097509710399997 }, "geometry": { "type": "Point", "coordinates": [ 54.097509710392231, 17.019787985333718, 50.6 ] } },
{ "type": "Feature", "properties": { "Name": "UNIVERSAL MEDICAL CENTER", "Wilayat": "Wilayat Salalah", "Governorat": "Dhofar Governorate", "Latitude": 17.013817598, "Longitude": 54.101005200099998 }, "geometry": { "type": "Point", "coordinates": [ 54.101005200112979, 17.013817597954347, 14.11156 ] } },
{ "type": "Feature", "properties": { "Name": null, "Wilayat": "Wilayat Salalah", "Governorat": "Dhofar Governorate", "Latitude": 17.005395550900001, "Longitude": 54.068195376699997 }, "geometry": { "type": "Point", "coordinates": [ 54.06819537672208, 17.005395550938047, 12.7 ] } },
{ "type": "Feature", "properties": { "Name": "SALALH SPECILISED MEDICAL CENTRE", "Wilayat": "Wilayat Salalah", "Governorat": "Dhofar Governorate", "Latitude": 17.0200538476, "Longitude": 54.084328755100003 }, "geometry": { "type": "Point", "coordinates": [ 54.084328755148206, 17.020053847591612, 19.2415 ] } },
{ "type": "Feature", "properties": { "Name": "ALITHIFAC DENTAL CLINIC", "Wilayat": "Wilayat Salalah", "Governorat": "Dhofar Governorate", "Latitude": 17.013769208799999, "Longitude": 54.085412982599998 }, "geometry": { "type": "Point", "coordinates": [ 54.085412982645245, 17.013769208798543, 19.58348 ] } },
{ "type": "Feature", "properties": { "Name": "ABOU AL-DAHAB CLINIC", "Wilayat": "Wilayat Salalah", "Governorat": "Dhofar Governorate", "Latitude": 17.013922642299999, "Longitude": 54.087593248200001 }, "geometry": { "type": "Point", "coordinates": [ 54.087593248189229, 17.01392264230093, 17.61169 ] } },
{ "type": "Feature", "properties": { "Name": "AL-NAJAH MEDICAL COMPLEX", "Wilayat": "Wilayat Salalah", "Governorat": "Dhofar Governorate", "Latitude": 17.017816643, "Longitude": 54.085055067 }, "geometry": { "type": "Point", "coordinates": [ 54.085055067001186, 17.01781664296508, 24.67197 ] } },
{ "type": "Feature", "properties": { "Name": "NAIF MEDICAL CENTER", "Wilayat": "Wilayat Salalah", "Governorat": "Dhofar Governorate", "Latitude": 17.0101278695, "Longitude": 54.081725896199998 }, "geometry": { "type": "Point", "coordinates": [ 54.081725896197888, 17.010127869545673, 23.43621 ] } },
{ "type": "Feature", "properties": { "Name": "AL AFIA MEDICAL COMPLEX", "Wilayat": "Wilayat Salalah", "Governorat": "Dhofar Governorate", "Latitude": 17.0125231761, "Longitude": 54.083184740699998 }, "geometry": { "type": "Point", "coordinates": [ 54.083184740744606, 17.012523176090298, 21.54531 ] } },
{ "type": "Feature", "properties": { "Name": "BAGHDAD DENTAL CLINIC", "Wilayat": "Wilayat Salalah", "Governorat": "Dhofar Governorate", "Latitude": 17.012116937599998, "Longitude": 54.083249848000001 }, "geometry": { "type": "Point", "coordinates": [ 54.083249847985819, 17.012116937625112, 20.25621 ] } },
{ "type": "Feature", "properties": { "Name": "AL MURAZAA & AL ANSI MEDICAL CENTRE", "Wilayat": "Wilayat Salalah", "Governorat": "Dhofar Governorate", "Latitude": 17.010580296800001, "Longitude": 54.0849452916 }, "geometry": { "type": "Point", "coordinates": [ 54.084945291620301, 17.01058029681127, 17.96026 ] } },
{ "type": "Feature", "properties": { "Name": "GULF PRIVATE MEDICAL COMPLEX", "Wilayat": "Wilayat Salalah", "Governorat": "Dhofar Governorate", "Latitude": 17.012840837799999, "Longitude": 54.085582993800003 }, "geometry": { "type": "Point", "coordinates": [ 54.085582993772803, 17.012840837753632, 26.12386 ] } },
{ "type": "Feature", "properties": { "Name": "AL MISHAA MEDICAL CENTER", "Wilayat": "Wilayat Salalah", "Governorat": "Dhofar Governorate", "Latitude": 17.011396328299998, "Longitude": 54.0901284284 }, "geometry": { "type": "Point", "coordinates": [ 54.090128428410857, 17.01139632834353, 23.35608 ] } },
{ "type": "Feature", "properties": { "Name": "AL RAZI POLYCLINIC-ER", "Wilayat": "Wilayat Salalah", "Governorat": "Dhofar Governorate", "Latitude": 17.013778409899999, "Longitude": 54.091503762400002 }, "geometry": { "type": "Point", "coordinates": [ 54.091503762444503, 17.013778409861871, 16.45927 ] } },
{ "type": "Feature", "properties": { "Name": "AL JAWHARA DENTAL CLINIC", "Wilayat": "Wilayat Salalah", "Governorat": "Dhofar Governorate", "Latitude": 17.018055015000002, "Longitude": 54.085028397400002 }, "geometry": { "type": "Point", "coordinates": [ 54.085028397410042, 17.01805501503603, 33.8 ] } },
{ "type": "Feature", "properties": { "Name": null, "Wilayat": "Wilayat Salalah", "Governorat": "Dhofar Governorate", "Latitude": 17.124777784199999, "Longitude": 53.993678881299999 }, "geometry": { "type": "Point", "coordinates": [ 53.993678881288957, 17.124777784241562, 797.90737 ] } },
{ "type": "Feature", "properties": { "Name": "TEETAM MEDICAL SERVICE", "Wilayat": "Wilayat Salalah", "Governorat": "Dhofar Governorate", "Latitude": 17.122768825800001, "Longitude": 53.937608576899997 }, "geometry": { "type": "Point", "coordinates": [ 53.937608576947369, 17.122768825828178, 921.17063 ] } },
{ "type": "Feature", "properties": { "Name": null, "Wilayat": "Wilayat Taqah", "Governorat": "Dhofar Governorate", "Latitude": 17.1757950577, "Longitude": 54.387658301599998 }, "geometry": { "type": "Point", "coordinates": [ 54.387658301628534, 17.175795057681668, 764.92486 ] } },
{ "type": "Feature", "properties": { "Name": "HAYIL CLINIC", "Wilayat": "Wilayat Taqah", "Governorat": "Dhofar Governorate", "Latitude": 17.037782509700001, "Longitude": 54.393812658800002 }, "geometry": { "type": "Point", "coordinates": [ 54.393812658760197, 17.037782509748844, 6.806 ] } },
{ "type": "Feature", "properties": { "Name": null, "Wilayat": "Wilayat Mirbat", "Governorat": "Dhofar Governorate", "Latitude": 17.106076885099998, "Longitude": 54.558438319399997 }, "geometry": { "type": "Point", "coordinates": [ 54.558438319418634, 17.106076885074238, 644.09636 ] } },
{ "type": "Feature", "properties": { "Name": null, "Wilayat": "Wilayat Mirbat", "Governorat": "Dhofar Governorate", "Latitude": 17.109642046499999, "Longitude": 54.558096488499999 }, "geometry": { "type": "Point", "coordinates": [ 54.558096488467264, 17.109642046539228, 639.15287 ] } },
{ "type": "Feature", "properties": { "Name": "TAWI ATAIR HOSPITAL-ER", "Wilayat": "Wilayat Mirbat", "Governorat": "Dhofar Governorate", "Latitude": 17.1082534598, "Longitude": 54.5578323059 }, "geometry": { "type": "Point", "coordinates": [ 54.557832305868601, 17.108253459811667, 640.3585 ] } },
{ "type": "Feature", "properties": { "Name": "MIRBAT CLINIC CENTER", "Wilayat": "Wilayat Mirbat", "Governorat": "Dhofar Governorate", "Latitude": 16.9822199201, "Longitude": 54.691731433999998 }, "geometry": { "type": "Point", "coordinates": [ 54.691731433978454, 16.982219920083292, 28.15802 ] } },
{ "type": "Feature", "properties": { "Name": "Sawb Health Center", "Wilayat": "Wilayat Sadah", "Governorat": "Dhofar Governorate", "Latitude": 17.110314862399999, "Longitude": 54.916253712200003 }, "geometry": { "type": "Point", "coordinates": [ 54.916253712216452, 17.110314862403868, 183.8942 ] } },
{ "type": "Feature", "properties": { "Name": "Sadh Hospital-er", "Wilayat": "Wilayat Sadah", "Governorat": "Dhofar Governorate", "Latitude": 17.051049608700001, "Longitude": 55.071941530799997 }, "geometry": { "type": "Point", "coordinates": [ 55.07194153077667, 17.051049608670183, 0.0 ] } },
{ "type": "Feature", "properties": { "Name": "Al Jazer Hospital", "Wilayat": "Wilayat Al Jazir", "Governorat": "Al Wusta Governorate", "Latitude": 18.580214654199999, "Longitude": 56.585730071999997 }, "geometry": { "type": "Point", "coordinates": [ 56.585730071964306, 18.580214654173059, 0.0 ] } },
{ "type": "Feature", "properties": { "Name": "Al Jazer Whos", "Wilayat": "Wilayat Al Jazir", "Governorat": "Al Wusta Governorate", "Latitude": 18.5823477649, "Longitude": 56.586816782699998 }, "geometry": { "type": "Point", "coordinates": [ 56.586816782688125, 18.582347764875383, 0.0 ] } },
{ "type": "Feature", "properties": { "Name": "Hayma Hospital", "Wilayat": "Wilayat Hayma", "Governorat": "Al Wusta Governorate", "Latitude": 19.9591837537, "Longitude": 56.283804038100001 }, "geometry": { "type": "Point", "coordinates": [ 56.283804038101806, 19.959183753721774, 0.0 ] } },
{ "type": "Feature", "properties": { "Name": "AL Doqum Hospital ER", "Wilayat": "Wilayat Ad Duqm", "Governorat": "Al Wusta Governorate", "Latitude": 19.629086475600001, "Longitude": 57.631275609600003 }, "geometry": { "type": "Point", "coordinates": [ 57.631275609571425, 19.629086475647224, 0.0 ] } },
{ "type": "Feature", "properties": { "Name": "Mahawt Health Center (With Beds)", "Wilayat": "Wilayat Mahawt", "Governorat": "Al Wusta Governorate", "Latitude": 20.7689195771, "Longitude": 58.281762617399998 }, "geometry": { "type": "Point", "coordinates": [ 58.281762617393582, 20.768919577089488, 0.0 ] } },
{ "type": "Feature", "properties": { "Name": null, "Wilayat": "Wilayat Masirah", "Governorat": "Ash Sharqiyah South Governorate", "Latitude": 20.588088088700001, "Longitude": 58.8480547 }, "geometry": { "type": "Point", "coordinates": [ 58.848054699967065, 20.588088088651709, 0.0 ] } },
{ "type": "Feature", "properties": { "Name": "AL Khiwaimah Health Center", "Wilayat": "Wilayat Jaalan Bani Bu Ali", "Governorat": "Ash Sharqiyah South Governorate", "Latitude": 21.373365624000002, "Longitude": 59.187286894300001 }, "geometry": { "type": "Point", "coordinates": [ 59.187286894336992, 21.373365624026619, 0.0 ] } },
{ "type": "Feature", "properties": { "Name": "Masirah Hospital", "Wilayat": "Wilayat Masirah", "Governorat": "Ash Sharqiyah South Governorate", "Latitude": 20.661631884599998, "Longitude": 58.877888666099999 }, "geometry": { "type": "Point", "coordinates": [ 58.87788866606126, 20.661631884578384, 0.0 ] } },
{ "type": "Feature", "properties": { "Name": "DGHQ - NORTH SHARQIYA", "Wilayat": "Wilayat Ibra", "Governorat": "Ash Sharqiyah North Governorate", "Latitude": 22.739624712000001, "Longitude": 58.517140791400003 }, "geometry": { "type": "Point", "coordinates": [ 58.517140791418136, 22.73962471198649, 0.0 ] } },
{ "type": "Feature", "properties": { "Name": "BADIYAH HOSPITAL", "Wilayat": "Wilayat Bidiyah", "Governorat": "Ash Sharqiyah North Governorate", "Latitude": 22.452534556, "Longitude": 58.802535040599999 }, "geometry": { "type": "Point", "coordinates": [ 58.802535040621855, 22.452534556029519, 0.0 ] } },
{ "type": "Feature", "properties": { "Name": "Al Mudaybi Medical Center", "Wilayat": "Wilayat Al Mudaybi", "Governorat": "Ash Sharqiyah North Governorate", "Latitude": 22.573226995199999, "Longitude": 58.121185711800003 }, "geometry": { "type": "Point", "coordinates": [ 58.121185711770899, 22.573226995189557, 0.0 ] } },
{ "type": "Feature", "properties": { "Name": "Adh Dhahir Health Center", "Wilayat": "Wilayat Bidiyah", "Governorat": "Ash Sharqiyah North Governorate", "Latitude": 22.599901749699999, "Longitude": 58.823651406800003 }, "geometry": { "type": "Point", "coordinates": [ 58.823651406768413, 22.599901749698535, 0.0 ] } },
{ "type": "Feature", "properties": { "Name": "Adam Hospital", "Wilayat": "Wilayat Adam", "Governorat": "Ad Dakhliyah Governorate", "Latitude": 22.4074467017, "Longitude": 57.510702896799998 }, "geometry": { "type": "Point", "coordinates": [ 57.510702896807565, 22.407446701673386, 0.0 ] } },
{ "type": "Feature", "properties": { "Name": "Sinaw Hospital", "Wilayat": "Wilayat Al Mudaybi", "Governorat": "Ash Sharqiyah North Governorate", "Latitude": 22.498490845700001, "Longitude": 58.028504730599998 }, "geometry": { "type": "Point", "coordinates": [ 58.028504730647683, 22.498490845714226, 0.0 ] } },
{ "type": "Feature", "properties": { "Name": "Al Uyun Health Center", "Wilayat": "Wilayat Al Mudaybi", "Governorat": "Ash Sharqiyah North Governorate", "Latitude": 22.371452641000001, "Longitude": 58.051407605000001 }, "geometry": { "type": "Point", "coordinates": [ 58.051407605022455, 22.371452640991972, 0.0 ] } },
{ "type": "Feature", "properties": { "Name": "Ibra Nursing Institute", "Wilayat": "Wilayat Ibra", "Governorat": "Ash Sharqiyah North Governorate", "Latitude": 22.692585209299999, "Longitude": 58.547071541299999 }, "geometry": { "type": "Point", "coordinates": [ 58.547071541291466, 22.692585209309339, 0.0 ] } },
{ "type": "Feature", "properties": { "Name": "Ibra Extended Health Center", "Wilayat": "Wilayat Ibra", "Governorat": "Ash Sharqiyah North Governorate", "Latitude": 22.691995412000001, "Longitude": 58.546379434800002 }, "geometry": { "type": "Point", "coordinates": [ 58.546379434807335, 22.691995412012126, 0.0 ] } },
{ "type": "Feature", "properties": { "Name": "Ibra Nursing Institute", "Wilayat": "Wilayat Ibra", "Governorat": "Ash Sharqiyah North Governorate", "Latitude": 22.6632791346, "Longitude": 58.591295946499997 }, "geometry": { "type": "Point", "coordinates": [ 58.59129594654069, 22.663279134568505, 0.0 ] } },
{ "type": "Feature", "properties": { "Name": null, "Wilayat": "Wilayat Ibra", "Governorat": "Ash Sharqiyah North Governorate", "Latitude": 22.662281240599999, "Longitude": 58.5905112019 }, "geometry": { "type": "Point", "coordinates": [ 58.590511201900505, 22.662281240629369, 0.0 ] } },
{ "type": "Feature", "properties": { "Name": "New Ibra Extended Health Center", "Wilayat": "Wilayat Ibra", "Governorat": "Ash Sharqiyah North Governorate", "Latitude": 22.6664230184, "Longitude": 58.591980350500002 }, "geometry": { "type": "Point", "coordinates": [ 58.591980350539309, 22.666423018384542, 0.0 ] } },
{ "type": "Feature", "properties": { "Name": "Infectious Disease Surveillance Center in Ibra", "Wilayat": "Wilayat Ibra", "Governorat": "Ash Sharqiyah North Governorate", "Latitude": 22.684584101599999, "Longitude": 58.548733189799997 }, "geometry": { "type": "Point", "coordinates": [ 58.54873318976562, 22.684584101581542, 0.0 ] } },
{ "type": "Feature", "properties": { "Name": "Tiwi Health Center", "Wilayat": "Wilayat Sur", "Governorat": "Ash Sharqiyah South Governorate", "Latitude": 22.8289997169, "Longitude": 59.256672919800003 }, "geometry": { "type": "Point", "coordinates": [ 59.256672919796159, 22.828999716857009, 0.0 ] } },
{ "type": "Feature", "properties": { "Name": "Ras Al Hadd Medical Centre", "Wilayat": "Wilayat Sur", "Governorat": "Ash Sharqiyah South Governorate", "Latitude": 22.523144627099999, "Longitude": 59.797288326100002 }, "geometry": { "type": "Point", "coordinates": [ 59.797288326050804, 22.523144627079308, 0.0 ] } },
{ "type": "Feature", "properties": { "Name": "Sur Hospital", "Wilayat": "Wilayat Sur", "Governorat": "Ash Sharqiyah South Governorate", "Latitude": 22.5102167529, "Longitude": 59.441112052100003 }, "geometry": { "type": "Point", "coordinates": [ 59.441112052089863, 22.510216752858192, 0.0 ] } },
{ "type": "Feature", "properties": { "Name": null, "Wilayat": "Wilayat Jaalan Bani Bu Ali", "Governorat": "Ash Sharqiyah South Governorate", "Latitude": 22.076726073700002, "Longitude": 59.679524107 }, "geometry": { "type": "Point", "coordinates": [ 59.679524107013719, 22.076726073684686, 0.0 ] } },
{ "type": "Feature", "properties": { "Name": "AL Suwaih Medical Centre", "Wilayat": "Wilayat Jaalan Bani Bu Ali", "Governorat": "Ash Sharqiyah South Governorate", "Latitude": 22.0826988739, "Longitude": 59.685346434300001 }, "geometry": { "type": "Point", "coordinates": [ 59.685346434337724, 22.082698873917053, 0.0 ] } },
{ "type": "Feature", "properties": { "Name": "Bani Bu Hassan  Hospital", "Wilayat": "Wilayat Jaalan Bani Bu Hasan", "Governorat": "Ash Sharqiyah South Governorate", "Latitude": 22.081299706300001, "Longitude": 59.282568347100003 }, "geometry": { "type": "Point", "coordinates": [ 59.282568347111024, 22.08129970633594, 0.0 ] } },
{ "type": "Feature", "properties": { "Name": "Jalan Medical Centre", "Wilayat": "Wilayat Jaalan Bani Bu Ali", "Governorat": "Ash Sharqiyah South Governorate", "Latitude": 22.055203456000001, "Longitude": 59.31543802 }, "geometry": { "type": "Point", "coordinates": [ 59.315438020028566, 22.055203456042399, 0.0 ] } },
{ "type": "Feature", "properties": { "Name": "Dghq South Sharqiya", "Wilayat": "Wilayat Sur", "Governorat": "Ash Sharqiyah South Governorate", "Latitude": 22.579720380400001, "Longitude": 59.5206797361 }, "geometry": { "type": "Point", "coordinates": [ 59.520679736111695, 22.579720380368723, 0.0 ] } },
{ "type": "Feature", "properties": { "Name": "Wadi Bani Khalid Hospital", "Wilayat": "Wilayat Wadi Bani Khalid", "Governorat": "Ash Sharqiyah North Governorate", "Latitude": 22.579526654799999, "Longitude": 59.094544674600002 }, "geometry": { "type": "Point", "coordinates": [ 59.094544674603817, 22.579526654797508, 0.0 ] } },
{ "type": "Feature", "properties": { "Name": "Wadi Bani Khalid Health Center", "Wilayat": "Wilayat Wadi Bani Khalid", "Governorat": "Ash Sharqiyah North Governorate", "Latitude": 22.579487565600001, "Longitude": 59.095294053899998 }, "geometry": { "type": "Point", "coordinates": [ 59.095294053856271, 22.579487565556001, 0.0 ] } },
{ "type": "Feature", "properties": { "Name": "Al Kamil Medical Center", "Wilayat": "Wilayat Al Kamil Wa Al Wafi", "Governorat": "Ash Sharqiyah South Governorate", "Latitude": 22.197927254500001, "Longitude": 59.215951619899997 }, "geometry": { "type": "Point", "coordinates": [ 59.215951619902562, 22.19792725451692, 0.0 ] } },
{ "type": "Feature", "properties": { "Name": "Al Wafi Medical Centre", "Wilayat": "Wilayat Al Kamil Wa Al Wafi", "Governorat": "Ash Sharqiyah South Governorate", "Latitude": 22.180130662, "Longitude": 59.236936233800002 }, "geometry": { "type": "Point", "coordinates": [ 59.236936233833283, 22.180130661976083, 0.0 ] } },
{ "type": "Feature", "properties": { "Name": "Al Ashkhara Health Center", "Wilayat": "Wilayat Jaalan Bani Bu Ali", "Governorat": "Ash Sharqiyah South Governorate", "Latitude": 21.847973075799999, "Longitude": 59.564289703 }, "geometry": { "type": "Point", "coordinates": [ 59.564289703001016, 21.847973075824441, 0.0 ] } },
{ "type": "Feature", "properties": { "Name": "Sur Privit Hospital Emargency", "Wilayat": "Wilayat Sur", "Governorat": "Ash Sharqiyah South Governorate", "Latitude": 22.5733034975, "Longitude": 59.516587672599996 }, "geometry": { "type": "Point", "coordinates": [ 59.516587672610058, 22.573303497536337, 0.0 ] } },
{ "type": "Feature", "properties": { "Name": "Al Noor Medical Complex", "Wilayat": "Wilayat Sur", "Governorat": "Ash Sharqiyah South Governorate", "Latitude": 22.578957763599998, "Longitude": 59.5149121404 }, "geometry": { "type": "Point", "coordinates": [ 59.514912140415888, 22.578957763617918, 0.0 ] } },
{ "type": "Feature", "properties": { "Name": "Sur Health Center", "Wilayat": "Wilayat Sur", "Governorat": "Ash Sharqiyah South Governorate", "Latitude": 22.5807090321, "Longitude": 59.515921255899997 }, "geometry": { "type": "Point", "coordinates": [ 59.515921255941173, 22.580709032143272, 0.0 ] } },
{ "type": "Feature", "properties": { "Name": null, "Wilayat": "Wilayat Sur", "Governorat": "Ash Sharqiyah South Governorate", "Latitude": 22.580473241300002, "Longitude": 59.514685385600004 }, "geometry": { "type": "Point", "coordinates": [ 59.514685385636469, 22.580473241286882, 0.0 ] } },
{ "type": "Feature", "properties": { "Name": "Sur Nursing Institute", "Wilayat": "Wilayat Sur", "Governorat": "Ash Sharqiyah South Governorate", "Latitude": 22.580565201300001, "Longitude": 59.517454278099997 }, "geometry": { "type": "Point", "coordinates": [ 59.517454278057059, 22.580565201258821, 0.0 ] } },
{ "type": "Feature", "properties": { "Name": null, "Wilayat": "Wilayat Sur", "Governorat": "Ash Sharqiyah South Governorate", "Latitude": 22.580395417799998, "Longitude": 59.5185435247 }, "geometry": { "type": "Point", "coordinates": [ 59.518543524709209, 22.58039541778496, 0.0 ] } },
{ "type": "Feature", "properties": { "Name": "Ministry Of health Sur", "Wilayat": "Wilayat Sur", "Governorat": "Ash Sharqiyah South Governorate", "Latitude": 22.579587203900001, "Longitude": 59.5160388571 }, "geometry": { "type": "Point", "coordinates": [ 59.516038857058746, 22.579587203879424, 0.0 ] } },
{ "type": "Feature", "properties": { "Name": "Al Huda Medical Clinic", "Wilayat": "Wilayat Ibri", "Governorat": "Adh Dhahirah Governorate", "Latitude": 23.216903986599998, "Longitude": 56.495583108200002 }, "geometry": { "type": "Point", "coordinates": [ 56.495583108229042, 23.216903986633156, 0.0 ] } },